[
  {
    "station_id": "NJDEP_BFBM-NJW04459-352-3",
    "station_name": "Hands Mill Pond-3",
    "latitude": 39.243096,
    "longitude": -74.901646,
    "observation_count": 3,
    "confidence_level": "Low",
    "mean_nitrate_mg_L": 52.00513333333333,
    "p90_nitrate_mg_L": 124.80168,
    "max_nitrate_mg_L": 156.0,
    "is_hotspot": 1,
    "detail_json": "station_details/NJDEP_BFBM-NJW04459-352-3.json"
  },
  {
    "station_id": "MRRI-NJSEA-Hackensack River Turnpike",
    "station_name": "Hackensack River Turnpike",
    "latitude": 40.82472,
    "longitude": -74.03555,
    "observation_count": 83,
    "confidence_level": "Medium",
    "mean_nitrate_mg_L": 6.910142945977459,
    "p90_nitrate_mg_L": 22.0667,
    "max_nitrate_mg_L": 36.698,
    "is_hotspot": 1,
    "detail_json": "station_details/MRRI-NJSEA-Hackensack_River_Turnpike.json"
  },
  {
    "station_id": "MRRI-NJSEA-Meadowlands(10)",
    "station_name": "Chromakill Creek I",
    "latitude": 40.80444,
    "longitude": -74.03611,
    "observation_count": 11,
    "confidence_level": "Low",
    "mean_nitrate_mg_L": 6.090909090909091,
    "p90_nitrate_mg_L": 19.7,
    "max_nitrate_mg_L": 20.55,
    "is_hotspot": 1,
    "detail_json": "station_details/MRRI-NJSEA-Meadowlands_10.json"
  },
  {
    "station_id": "MRRI-NJSEA-Mill Creek",
    "station_name": "Mill Creek",
    "latitude": 40.80472,
    "longitude": -74.0425,
    "observation_count": 83,
    "confidence_level": "Medium",
    "mean_nitrate_mg_L": 9.058088184998056,
    "p90_nitrate_mg_L": 19.17844,
    "max_nitrate_mg_L": 37.541,
    "is_hotspot": 1,
    "detail_json": "station_details/MRRI-NJSEA-Mill_Creek.json"
  },
  {
    "station_id": "MRRI-NJSEA-Chromakill Creek II",
    "station_name": "Chromakill Creek II",
    "latitude": 40.78944,
    "longitude": -74.03806,
    "observation_count": 67,
    "confidence_level": "Medium",
    "mean_nitrate_mg_L": 7.31099056331247,
    "p90_nitrate_mg_L": 19.0108,
    "max_nitrate_mg_L": 71.938,
    "is_hotspot": 1,
    "detail_json": "station_details/MRRI-NJSEA-Chromakill_Creek_II.json"
  },
  {
    "station_id": "MRRI-NJSEA-Chromakill Creek I",
    "station_name": "Chromakill Creek I",
    "latitude": 40.80444,
    "longitude": -74.03611,
    "observation_count": 83,
    "confidence_level": "Medium",
    "mean_nitrate_mg_L": 6.215383754372328,
    "p90_nitrate_mg_L": 18.5168,
    "max_nitrate_mg_L": 33.747,
    "is_hotspot": 1,
    "detail_json": "station_details/MRRI-NJSEA-Chromakill_Creek_I.json"
  },
  {
    "station_id": "MRRI-NJSEA-Route 3 Bridge",
    "station_name": "Route 3 Bridge",
    "latitude": 40.80227,
    "longitude": -74.06585,
    "observation_count": 83,
    "confidence_level": "Medium",
    "mean_nitrate_mg_L": 6.324458764088612,
    "p90_nitrate_mg_L": 17.888959999999994,
    "max_nitrate_mg_L": 35.47,
    "is_hotspot": 1,
    "detail_json": "station_details/MRRI-NJSEA-Route_3_Bridge.json"
  },
  {
    "station_id": "NJDEP_BFBM-BFBM000213",
    "station_name": "Matchaponix Bk Off Rt 527",
    "latitude": 40.319875,
    "longitude": -74.3606,
    "observation_count": 21,
    "confidence_level": "Low",
    "mean_nitrate_mg_L": 10.057238095238096,
    "p90_nitrate_mg_L": 16.6,
    "max_nitrate_mg_L": 17.0,
    "is_hotspot": 1,
    "detail_json": "station_details/NJDEP_BFBM-BFBM000213.json"
  },
  {
    "station_id": "NJDEP_BFBM-BFBM000375",
    "station_name": "Matchaponix Bk at Englishtown Rd",
    "latitude": 40.330443,
    "longitude": -74.361121,
    "observation_count": 7,
    "confidence_level": "Low",
    "mean_nitrate_mg_L": 9.015714285714283,
    "p90_nitrate_mg_L": 16.380000000000003,
    "max_nitrate_mg_L": 17.1,
    "is_hotspot": 1,
    "detail_json": "station_details/NJDEP_BFBM-BFBM000375.json"
  },
  {
    "station_id": "GSWA-LB4P",
    "station_name": "LB4P",
    "latitude": 40.775292,
    "longitude": -74.463949,
    "observation_count": 10,
    "confidence_level": "Low",
    "mean_nitrate_mg_L": 13.7442,
    "p90_nitrate_mg_L": 15.2024,
    "max_nitrate_mg_L": 15.224,
    "is_hotspot": 1,
    "detail_json": "station_details/GSWA-LB4P.json"
  },
  {
    "station_id": "MRRI-NJSEA-Meadowlands(11)",
    "station_name": "Chromakill Creek II",
    "latitude": 40.78944,
    "longitude": -74.03806,
    "observation_count": 5,
    "confidence_level": "Low",
    "mean_nitrate_mg_L": 5.742,
    "p90_nitrate_mg_L": 14.16,
    "max_nitrate_mg_L": 19.7,
    "is_hotspot": 1,
    "detail_json": "station_details/MRRI-NJSEA-Meadowlands_11.json"
  },
  {
    "station_id": "MRRI-NJSEA-North Hackensack",
    "station_name": "North Hackensack",
    "latitude": 40.84944,
    "longitude": -74.03028,
    "observation_count": 83,
    "confidence_level": "Medium",
    "mean_nitrate_mg_L": 6.739537660318695,
    "p90_nitrate_mg_L": 14.155199999999995,
    "max_nitrate_mg_L": 145.764,
    "is_hotspot": 1,
    "detail_json": "station_details/MRRI-NJSEA-North_Hackensack.json"
  },
  {
    "station_id": "NJDEP_BFBM-01405302",
    "station_name": "Matchaponix Bk",
    "latitude": 40.389449,
    "longitude": -74.381775,
    "observation_count": 13,
    "confidence_level": "Low",
    "mean_nitrate_mg_L": 7.219230769230768,
    "p90_nitrate_mg_L": 14.040000000000004,
    "max_nitrate_mg_L": 17.7,
    "is_hotspot": 1,
    "detail_json": "station_details/NJDEP_BFBM-01405302.json"
  },
  {
    "station_id": "NJDEP_BFBM-AN0451",
    "station_name": "MATCHAPONIX BROOK TEXAS RD",
    "latitude": 40.359888,
    "longitude": -74.367694,
    "observation_count": 3,
    "confidence_level": "Low",
    "mean_nitrate_mg_L": 9.016666666666666,
    "p90_nitrate_mg_L": 13.76,
    "max_nitrate_mg_L": 14.4,
    "is_hotspot": 1,
    "detail_json": "station_details/NJDEP_BFBM-AN0451.json"
  },
  {
    "station_id": "NJDEP_BFBM-AN0758",
    "station_name": "PANTHER BR (MANANTICO CK) ITALIA AVE",
    "latitude": 39.461166,
    "longitude": -74.957222,
    "observation_count": 2,
    "confidence_level": "Low",
    "mean_nitrate_mg_L": 10.72,
    "p90_nitrate_mg_L": 13.584,
    "max_nitrate_mg_L": 14.3,
    "is_hotspot": 1,
    "detail_json": "station_details/NJDEP_BFBM-AN0758.json"
  },
  {
    "station_id": "NJDEP_BFBM-AN0275A",
    "station_name": "PECKMAN RIVER AT BRADFORD AVENUE",
    "latitude": 40.848217,
    "longitude": -74.234232,
    "observation_count": 12,
    "confidence_level": "Low",
    "mean_nitrate_mg_L": 8.9125,
    "p90_nitrate_mg_L": 13.5,
    "max_nitrate_mg_L": 13.9,
    "is_hotspot": 1,
    "detail_json": "station_details/NJDEP_BFBM-AN0275A.json"
  },
  {
    "station_id": "MRRI-NJSEA-Meadowlands(3)",
    "station_name": "Route 3 Bridge",
    "latitude": 40.80227,
    "longitude": -74.06585,
    "observation_count": 11,
    "confidence_level": "Low",
    "mean_nitrate_mg_L": 5.84,
    "p90_nitrate_mg_L": 13.4,
    "max_nitrate_mg_L": 23.18,
    "is_hotspot": 1,
    "detail_json": "station_details/MRRI-NJSEA-Meadowlands_3.json"
  },
  {
    "station_id": "MRRI-NJSEA-Amtrack Bridge",
    "station_name": "Amtrack Bridge",
    "latitude": 40.77788,
    "longitude": -74.09042,
    "observation_count": 83,
    "confidence_level": "Medium",
    "mean_nitrate_mg_L": 6.312020559657986,
    "p90_nitrate_mg_L": 13.048199999999994,
    "max_nitrate_mg_L": 107.96,
    "is_hotspot": 1,
    "detail_json": "station_details/MRRI-NJSEA-Amtrack_Bridge.json"
  },
  {
    "station_id": "MRRI-NJSEA-Meadowlands(9)",
    "station_name": "Mill Creek",
    "latitude": 40.80472,
    "longitude": -74.0425,
    "observation_count": 11,
    "confidence_level": "Low",
    "mean_nitrate_mg_L": 7.739090909090908,
    "p90_nitrate_mg_L": 12.82,
    "max_nitrate_mg_L": 18.39,
    "is_hotspot": 1,
    "detail_json": "station_details/MRRI-NJSEA-Meadowlands_9.json"
  },
  {
    "station_id": "GSWA-LB4",
    "station_name": "LB4",
    "latitude": 40.773636,
    "longitude": -74.463322,
    "observation_count": 23,
    "confidence_level": "Low",
    "mean_nitrate_mg_L": 8.601347826086958,
    "p90_nitrate_mg_L": 12.3008,
    "max_nitrate_mg_L": 13.8,
    "is_hotspot": 1,
    "detail_json": "station_details/GSWA-LB4.json"
  },
  {
    "station_id": "MRRI-NJSEA-Berrys Creek",
    "station_name": "Berrys Creek",
    "latitude": 40.81139,
    "longitude": -74.09194,
    "observation_count": 83,
    "confidence_level": "Medium",
    "mean_nitrate_mg_L": 4.6449637776914106,
    "p90_nitrate_mg_L": 10.9074,
    "max_nitrate_mg_L": 30.238,
    "is_hotspot": 1,
    "detail_json": "station_details/MRRI-NJSEA-Berrys_Creek.json"
  },
  {
    "station_id": "MRRI-NJSEA-Meadowlands(8)",
    "station_name": "Berrys Creek",
    "latitude": 40.81139,
    "longitude": -74.09194,
    "observation_count": 11,
    "confidence_level": "Low",
    "mean_nitrate_mg_L": 4.187272727272727,
    "p90_nitrate_mg_L": 10.75,
    "max_nitrate_mg_L": 15.2,
    "is_hotspot": 1,
    "detail_json": "station_details/MRRI-NJSEA-Meadowlands_8.json"
  },
  {
    "station_id": "MRRI-NJSEA-Saw Mill Creek",
    "station_name": "Saw Mill Creek",
    "latitude": 40.76944,
    "longitude": -74.09861,
    "observation_count": 83,
    "confidence_level": "Medium",
    "mean_nitrate_mg_L": 5.260662572872134,
    "p90_nitrate_mg_L": 10.4328,
    "max_nitrate_mg_L": 38.463,
    "is_hotspot": 1,
    "detail_json": "station_details/MRRI-NJSEA-Saw_Mill_Creek.json"
  },
  {
    "station_id": "NJDEP_BFBM-BFBM000214",
    "station_name": "Millstone Rvr UNT On Rt 533",
    "latitude": 40.448397,
    "longitude": -74.607685,
    "observation_count": 1,
    "confidence_level": "Low",
    "mean_nitrate_mg_L": 9.9,
    "p90_nitrate_mg_L": 9.9,
    "max_nitrate_mg_L": 9.9,
    "is_hotspot": 1,
    "detail_json": "station_details/NJDEP_BFBM-BFBM000214.json"
  },
  {
    "station_id": "NJDEP_BFBM-01464020",
    "station_name": "ASSUNPINK CK AT PEACE STREET, TRENTON NJ",
    "latitude": 40.21721,
    "longitude": -74.76637,
    "observation_count": 3,
    "confidence_level": "Low",
    "mean_nitrate_mg_L": 6.44,
    "p90_nitrate_mg_L": 9.802,
    "max_nitrate_mg_L": 10.3,
    "is_hotspot": 1,
    "detail_json": "station_details/NJDEP_BFBM-01464020.json"
  },
  {
    "station_id": "MRRI-NJSEA-Pennhorn Creek",
    "station_name": "Pennhorn Creek",
    "latitude": 40.75806,
    "longitude": -74.07472,
    "observation_count": 76,
    "confidence_level": "Medium",
    "mean_nitrate_mg_L": 2.7285210526315797,
    "p90_nitrate_mg_L": 9.5045,
    "max_nitrate_mg_L": 16.9,
    "is_hotspot": 1,
    "detail_json": "station_details/MRRI-NJSEA-Pennhorn_Creek.json"
  },
  {
    "station_id": "NJDEP_BFBM-AN0759",
    "station_name": "MANANTICO CK HANCE BRIDGE RD RT 673",
    "latitude": 39.4505,
    "longitude": -74.956083,
    "observation_count": 31,
    "confidence_level": "Medium",
    "mean_nitrate_mg_L": 7.425806451612903,
    "p90_nitrate_mg_L": 9.2,
    "max_nitrate_mg_L": 9.54,
    "is_hotspot": 1,
    "detail_json": "station_details/NJDEP_BFBM-AN0759.json"
  },
  {
    "station_id": "NJDEP_BFBM-BFBM000239",
    "station_name": "Salem R Trib 3 at US Hwy 40",
    "latitude": 39.63885,
    "longitude": -75.276291,
    "observation_count": 84,
    "confidence_level": "Medium",
    "mean_nitrate_mg_L": 7.649880952380952,
    "p90_nitrate_mg_L": 8.871,
    "max_nitrate_mg_L": 9.6,
    "is_hotspot": 1,
    "detail_json": "station_details/NJDEP_BFBM-BFBM000239.json"
  },
  {
    "station_id": "NJDEP_BFBM-BFBM000198",
    "station_name": "Neshanic River tributary",
    "latitude": 40.490392,
    "longitude": -74.802317,
    "observation_count": 7,
    "confidence_level": "Low",
    "mean_nitrate_mg_L": 4.7945714285714285,
    "p90_nitrate_mg_L": 8.868000000000002,
    "max_nitrate_mg_L": 12.9,
    "is_hotspot": 1,
    "detail_json": "station_details/NJDEP_BFBM-BFBM000198.json"
  },
  {
    "station_id": "MRRI-NJSEA-South Hackensack River",
    "station_name": "South Hackensack River",
    "latitude": 40.74179,
    "longitude": -74.07943,
    "observation_count": 82,
    "confidence_level": "Medium",
    "mean_nitrate_mg_L": 4.80565192761605,
    "p90_nitrate_mg_L": 8.731000000000002,
    "max_nitrate_mg_L": 28.577,
    "is_hotspot": 1,
    "detail_json": "station_details/MRRI-NJSEA-South_Hackensack_River.json"
  },
  {
    "station_id": "MRRI-NJSEA-Meadowlands(7)",
    "station_name": "Saw Mill Creek",
    "latitude": 40.76944,
    "longitude": -74.09861,
    "observation_count": 11,
    "confidence_level": "Low",
    "mean_nitrate_mg_L": 3.769090909090909,
    "p90_nitrate_mg_L": 8.7,
    "max_nitrate_mg_L": 9.9,
    "is_hotspot": 1,
    "detail_json": "station_details/MRRI-NJSEA-Meadowlands_7.json"
  },
  {
    "station_id": "NJDEP_BFBM-BA74",
    "station_name": "TRIB TO SALEM RIVER ON MAIN STREET,RT 615, RICHMANTOWN",
    "latitude": 39.6267,
    "longitude": -75.2913,
    "observation_count": 84,
    "confidence_level": "Medium",
    "mean_nitrate_mg_L": 7.755357142857143,
    "p90_nitrate_mg_L": 8.697,
    "max_nitrate_mg_L": 9.04,
    "is_hotspot": 1,
    "detail_json": "station_details/NJDEP_BFBM-BA74.json"
  },
  {
    "station_id": "MRRI-NJSEA-Meadowlands(6)",
    "station_name": "Pennhorn Creek",
    "latitude": 40.75806,
    "longitude": -74.07472,
    "observation_count": 4,
    "confidence_level": "Low",
    "mean_nitrate_mg_L": 4.0575,
    "p90_nitrate_mg_L": 8.696500000000002,
    "max_nitrate_mg_L": 11.095,
    "is_hotspot": 1,
    "detail_json": "station_details/MRRI-NJSEA-Meadowlands_6.json"
  },
  {
    "station_id": "NJDEP_BFBM-BA73",
    "station_name": "TRIB TO SALEM RIVER ON RENTER ROAD IN RICHMANTOWN",
    "latitude": 39.6344,
    "longitude": -75.2823,
    "observation_count": 84,
    "confidence_level": "Medium",
    "mean_nitrate_mg_L": 7.494880952380953,
    "p90_nitrate_mg_L": 8.664,
    "max_nitrate_mg_L": 9.05,
    "is_hotspot": 1,
    "detail_json": "station_details/NJDEP_BFBM-BA73.json"
  },
  {
    "station_id": "NJDEP_BFBM-01389600",
    "station_name": "Peckman River at Woodland Park NJ",
    "latitude": 40.892265,
    "longitude": -74.211569,
    "observation_count": 14,
    "confidence_level": "Low",
    "mean_nitrate_mg_L": 5.714285714285714,
    "p90_nitrate_mg_L": 8.347,
    "max_nitrate_mg_L": 11.2,
    "is_hotspot": 1,
    "detail_json": "station_details/NJDEP_BFBM-01389600.json"
  },
  {
    "station_id": "NJDEP_BFBM-NJLM-1119-1",
    "station_name": "Duhernal Lake-1",
    "latitude": 40.39889,
    "longitude": -74.377185,
    "observation_count": 16,
    "confidence_level": "Low",
    "mean_nitrate_mg_L": 4.91875,
    "p90_nitrate_mg_L": 8.309999999999999,
    "max_nitrate_mg_L": 12.4,
    "is_hotspot": 1,
    "detail_json": "station_details/NJDEP_BFBM-NJLM-1119-1.json"
  },
  {
    "station_id": "NJDEP_BFBM-AN0699",
    "station_name": "ALLOWAY CK YORKTOWN-FRIESBURG RD RT 672",
    "latitude": 39.591166,
    "longitude": -75.296055,
    "observation_count": 2,
    "confidence_level": "Low",
    "mean_nitrate_mg_L": 7.24,
    "p90_nitrate_mg_L": 8.112,
    "max_nitrate_mg_L": 8.33,
    "is_hotspot": 1,
    "detail_json": "station_details/NJDEP_BFBM-AN0699.json"
  },
  {
    "station_id": "NJDEP_BFBM-AN0686",
    "station_name": "OLDMANS CK SWEDESBORO RD",
    "latitude": 39.662305,
    "longitude": -75.230833,
    "observation_count": 12,
    "confidence_level": "Low",
    "mean_nitrate_mg_L": 6.56,
    "p90_nitrate_mg_L": 7.82,
    "max_nitrate_mg_L": 8.12,
    "is_hotspot": 1,
    "detail_json": "station_details/NJDEP_BFBM-AN0686.json"
  },
  {
    "station_id": "NJDEP_BFBM-01391100",
    "station_name": "Hohokus Brook at mouth at Paramus NJ",
    "latitude": 40.955341,
    "longitude": -74.100534,
    "observation_count": 10,
    "confidence_level": "Low",
    "mean_nitrate_mg_L": 5.784000000000001,
    "p90_nitrate_mg_L": 7.815999999999998,
    "max_nitrate_mg_L": 12.1,
    "is_hotspot": 1,
    "detail_json": "station_details/NJDEP_BFBM-01391100.json"
  },
  {
    "station_id": "NJDEP_BFBM-NJLM-1119-2",
    "station_name": "Duhernal Lake-2",
    "latitude": 40.402212,
    "longitude": -74.371394,
    "observation_count": 16,
    "confidence_level": "Low",
    "mean_nitrate_mg_L": 4.72625,
    "p90_nitrate_mg_L": 7.68,
    "max_nitrate_mg_L": 9.85,
    "is_hotspot": 1,
    "detail_json": "station_details/NJDEP_BFBM-NJLM-1119-2.json"
  },
  {
    "station_id": "NJDEP_BFBM-FIBI118",
    "station_name": "Peckman River at West Bradford Ave",
    "latitude": 40.849656,
    "longitude": -74.233806,
    "observation_count": 1,
    "confidence_level": "Low",
    "mean_nitrate_mg_L": 7.66,
    "p90_nitrate_mg_L": 7.66,
    "max_nitrate_mg_L": 7.66,
    "is_hotspot": 1,
    "detail_json": "station_details/NJDEP_BFBM-FIBI118.json"
  },
  {
    "station_id": "NJDEP_BFBM-AN0070",
    "station_name": "HANCES BK RT 57 BRIDGE 2106-164/1812",
    "latitude": 40.804472,
    "longitude": -74.860444,
    "observation_count": 2,
    "confidence_level": "Low",
    "mean_nitrate_mg_L": 5.295,
    "p90_nitrate_mg_L": 7.635000000000001,
    "max_nitrate_mg_L": 8.22,
    "is_hotspot": 1,
    "detail_json": "station_details/NJDEP_BFBM-AN0070.json"
  },
  {
    "station_id": "NJDEP_BFBM-AN0679A",
    "station_name": "Cartwheel Br at Elmer Barnsboro Rd",
    "latitude": 39.68461996,
    "longitude": -75.17700642,
    "observation_count": 1,
    "confidence_level": "Low",
    "mean_nitrate_mg_L": 7.55,
    "p90_nitrate_mg_L": 7.55,
    "max_nitrate_mg_L": 7.55,
    "is_hotspot": 1,
    "detail_json": "station_details/NJDEP_BFBM-AN0679A.json"
  },
  {
    "station_id": "DRBC-NUTR-ASSU",
    "station_name": "Assunpink Creek at Mill Hill Park",
    "latitude": 40.21826,
    "longitude": -74.763063,
    "observation_count": 21,
    "confidence_level": "Low",
    "mean_nitrate_mg_L": 3.955380953609524,
    "p90_nitrate_mg_L": 7.5,
    "max_nitrate_mg_L": 11.2,
    "is_hotspot": 1,
    "detail_json": "station_details/DRBC-NUTR-ASSU.json"
  },
  {
    "station_id": "MRRI-NJSEA-1A Landfill Site",
    "station_name": "1A Landfill Site",
    "latitude": 40.76717,
    "longitude": -74.12287,
    "observation_count": 78,
    "confidence_level": "Medium",
    "mean_nitrate_mg_L": 3.1362679487179483,
    "p90_nitrate_mg_L": 7.460999999999996,
    "max_nitrate_mg_L": 27.57,
    "is_hotspot": 1,
    "detail_json": "station_details/MRRI-NJSEA-1A_Landfill_Site.json"
  },
  {
    "station_id": "NJDEP_BFBM-AN0759A",
    "station_name": "Menantico Ck at Mays Landing Rd (Rt 552)",
    "latitude": 39.419237,
    "longitude": -74.965828,
    "observation_count": 2,
    "confidence_level": "Low",
    "mean_nitrate_mg_L": 5.585,
    "p90_nitrate_mg_L": 7.397,
    "max_nitrate_mg_L": 7.85,
    "is_hotspot": 1,
    "detail_json": "station_details/NJDEP_BFBM-AN0759A.json"
  },
  {
    "station_id": "NJDEP_BFBM-01407846",
    "station_name": "Applegates Creek at Jerseyville NJ",
    "latitude": 40.249591,
    "longitude": -74.234839,
    "observation_count": 17,
    "confidence_level": "Low",
    "mean_nitrate_mg_L": 5.087647058823529,
    "p90_nitrate_mg_L": 7.396,
    "max_nitrate_mg_L": 9.31,
    "is_hotspot": 1,
    "detail_json": "station_details/NJDEP_BFBM-01407846.json"
  },
  {
    "station_id": "NJDEP_BFBM-AN0289",
    "station_name": "SADDLE R DUNKERHOOK RD",
    "latitude": 40.946305,
    "longitude": -74.098722,
    "observation_count": 2,
    "confidence_level": "Low",
    "mean_nitrate_mg_L": 6.07,
    "p90_nitrate_mg_L": 7.374,
    "max_nitrate_mg_L": 7.7,
    "is_hotspot": 1,
    "detail_json": "station_details/NJDEP_BFBM-AN0289.json"
  },
  {
    "station_id": "NJDEP_BFBM-AN0275",
    "station_name": "PECKMAN R MCBRIDE AVE BRIDGE 130",
    "latitude": 40.892055,
    "longitude": -74.211472,
    "observation_count": 2,
    "confidence_level": "Low",
    "mean_nitrate_mg_L": 5.96,
    "p90_nitrate_mg_L": 7.336,
    "max_nitrate_mg_L": 7.68,
    "is_hotspot": 1,
    "detail_json": "station_details/NJDEP_BFBM-AN0275.json"
  },
  {
    "station_id": "NJDEP_BFBM-01482880",
    "station_name": "ALLOWAY CREEK NEAR YORKTOWN NJ",
    "latitude": 39.591173,
    "longitude": -75.296042,
    "observation_count": 8,
    "confidence_level": "Low",
    "mean_nitrate_mg_L": 6.76375,
    "p90_nitrate_mg_L": 7.25,
    "max_nitrate_mg_L": 7.32,
    "is_hotspot": 1,
    "detail_json": "station_details/NJDEP_BFBM-01482880.json"
  },
  {
    "station_id": "NJDEP_BFBM-FIBI276",
    "station_name": "Menantico Creek at Mays Landing Road",
    "latitude": 39.41949687,
    "longitude": -74.96598054,
    "observation_count": 2,
    "confidence_level": "Low",
    "mean_nitrate_mg_L": 7.08,
    "p90_nitrate_mg_L": 7.136,
    "max_nitrate_mg_L": 7.15,
    "is_hotspot": 1,
    "detail_json": "station_details/NJDEP_BFBM-FIBI276.json"
  },
  {
    "station_id": "NJDEP_BFBM-BFBM000256",
    "station_name": "Cruser Bk at Belle Mead Blawenburg Rd",
    "latitude": 40.45709,
    "longitude": -74.685554,
    "observation_count": 30,
    "confidence_level": "Medium",
    "mean_nitrate_mg_L": 3.1908666666666665,
    "p90_nitrate_mg_L": 7.041000000000003,
    "max_nitrate_mg_L": 17.6,
    "is_hotspot": 1,
    "detail_json": "station_details/NJDEP_BFBM-BFBM000256.json"
  },
  {
    "station_id": "NJHDG-6",
    "station_name": "Saddle River",
    "latitude": 40.889,
    "longitude": -74.08166,
    "observation_count": 403,
    "confidence_level": "High",
    "mean_nitrate_mg_L": 4.591524069478908,
    "p90_nitrate_mg_L": 6.98072,
    "max_nitrate_mg_L": 11.7045,
    "is_hotspot": 1,
    "detail_json": "station_details/NJHDG-6.json"
  },
  {
    "station_id": "GSWA-LB2",
    "station_name": "LB2",
    "latitude": 40.768053,
    "longitude": -74.454901,
    "observation_count": 21,
    "confidence_level": "Low",
    "mean_nitrate_mg_L": 4.60947619047619,
    "p90_nitrate_mg_L": 6.9,
    "max_nitrate_mg_L": 9.6,
    "is_hotspot": 1,
    "detail_json": "station_details/GSWA-LB2.json"
  },
  {
    "station_id": "NJDEP_BFBM-FIBI274",
    "station_name": "Oldmans Creek at Monroeville Road",
    "latitude": 39.661588,
    "longitude": -75.23291376,
    "observation_count": 2,
    "confidence_level": "Low",
    "mean_nitrate_mg_L": 5.595000000000001,
    "p90_nitrate_mg_L": 6.879,
    "max_nitrate_mg_L": 7.2,
    "is_hotspot": 1,
    "detail_json": "station_details/NJDEP_BFBM-FIBI274.json"
  },
  {
    "station_id": "NJDEP_BFBM-NJW04459-025-1",
    "station_name": "Cedarville Block Sand and Gravel Company Pond-1",
    "latitude": 39.345297,
    "longitude": -75.23262,
    "observation_count": 4,
    "confidence_level": "Low",
    "mean_nitrate_mg_L": 5.025,
    "p90_nitrate_mg_L": 6.6240000000000006,
    "max_nitrate_mg_L": 6.87,
    "is_hotspot": 1,
    "detail_json": "station_details/NJDEP_BFBM-NJW04459-025-1.json"
  },
  {
    "station_id": "NJDEP_BFBM-01413007",
    "station_name": "Barrett Run at Diament Rd near Shiloh NJ",
    "latitude": 39.449992,
    "longitude": -75.298218,
    "observation_count": 16,
    "confidence_level": "Low",
    "mean_nitrate_mg_L": 4.48875,
    "p90_nitrate_mg_L": 6.5600000000000005,
    "max_nitrate_mg_L": 7.34,
    "is_hotspot": 1,
    "detail_json": "station_details/NJDEP_BFBM-01413007.json"
  },
  {
    "station_id": "NJDEP_BFBM-AN0288",
    "station_name": "HOHOKUS BK SPRING ST",
    "latitude": 40.973527,
    "longitude": -74.1085,
    "observation_count": 2,
    "confidence_level": "Low",
    "mean_nitrate_mg_L": 5.525,
    "p90_nitrate_mg_L": 6.545,
    "max_nitrate_mg_L": 6.8,
    "is_hotspot": 1,
    "detail_json": "station_details/NJDEP_BFBM-AN0288.json"
  },
  {
    "station_id": "NJDEP_BFBM-AN0744",
    "station_name": "PALATINE BR DUBOIS RD",
    "latitude": 39.557027,
    "longitude": -75.174333,
    "observation_count": 2,
    "confidence_level": "Low",
    "mean_nitrate_mg_L": 6.34,
    "p90_nitrate_mg_L": 6.452000000000001,
    "max_nitrate_mg_L": 6.48,
    "is_hotspot": 1,
    "detail_json": "station_details/NJDEP_BFBM-AN0744.json"
  },
  {
    "station_id": "BTMUA-BTR-1",
    "station_name": "Burnt Tavern Road",
    "latitude": 40.0992,
    "longitude": -74.152,
    "observation_count": 21,
    "confidence_level": "Low",
    "mean_nitrate_mg_L": 4.118841348573871,
    "p90_nitrate_mg_L": 6.3416,
    "max_nitrate_mg_L": 9.2305,
    "is_hotspot": 1,
    "detail_json": "station_details/BTMUA-BTR-1.json"
  },
  {
    "station_id": "NJDEP_BFBM-AN0116",
    "station_name": "ASSUNPINK CK MULBERRY ST",
    "latitude": 40.235694,
    "longitude": -74.738805,
    "observation_count": 2,
    "confidence_level": "Low",
    "mean_nitrate_mg_L": 3.879,
    "p90_nitrate_mg_L": 6.295800000000001,
    "max_nitrate_mg_L": 6.9,
    "is_hotspot": 1,
    "detail_json": "station_details/NJDEP_BFBM-AN0116.json"
  },
  {
    "station_id": "MRRI-NJSEA-Meadowlands(5)",
    "station_name": "South Hackensack River",
    "latitude": 40.74179,
    "longitude": -74.07943,
    "observation_count": 10,
    "confidence_level": "Low",
    "mean_nitrate_mg_L": 4.465,
    "p90_nitrate_mg_L": 6.214999999999996,
    "max_nitrate_mg_L": 17.6,
    "is_hotspot": 1,
    "detail_json": "station_details/MRRI-NJSEA-Meadowlands_5.json"
  },
  {
    "station_id": "NJDEP_BFBM-NJW04459-025-2",
    "station_name": "Cedarville Block Sand and Gravel Company Pond-2",
    "latitude": 39.345666,
    "longitude": -75.231099,
    "observation_count": 4,
    "confidence_level": "Low",
    "mean_nitrate_mg_L": 3.585975,
    "p90_nitrate_mg_L": 6.127,
    "max_nitrate_mg_L": 6.22,
    "is_hotspot": 1,
    "detail_json": "station_details/NJDEP_BFBM-NJW04459-025-2.json"
  },
  {
    "station_id": "NJDEP_BFBM-AN0757",
    "station_name": "CEDAR BR ITALIA AVE",
    "latitude": 39.461194,
    "longitude": -74.958083,
    "observation_count": 2,
    "confidence_level": "Low",
    "mean_nitrate_mg_L": 5.67,
    "p90_nitrate_mg_L": 6.086,
    "max_nitrate_mg_L": 6.19,
    "is_hotspot": 1,
    "detail_json": "station_details/NJDEP_BFBM-AN0757.json"
  },
  {
    "station_id": "NJDEP_BFBM-01391500",
    "station_name": "SADDLE RIVER AT LODI",
    "latitude": 40.89037,
    "longitude": -74.0807,
    "observation_count": 13,
    "confidence_level": "Low",
    "mean_nitrate_mg_L": 4.064615384615385,
    "p90_nitrate_mg_L": 6.014000000000001,
    "max_nitrate_mg_L": 7.13,
    "is_hotspot": 1,
    "detail_json": "station_details/NJDEP_BFBM-01391500.json"
  },
  {
    "station_id": "NJDEP_BFBM-AN0711",
    "station_name": "PARSONAGE RUN FINLEY RD",
    "latitude": 39.487333,
    "longitude": -75.253555,
    "observation_count": 2,
    "confidence_level": "Low",
    "mean_nitrate_mg_L": 5.91,
    "p90_nitrate_mg_L": 5.942,
    "max_nitrate_mg_L": 5.95,
    "is_hotspot": 1,
    "detail_json": "station_details/NJDEP_BFBM-AN0711.json"
  },
  {
    "station_id": "NJDEP_BFBM-AN0290",
    "station_name": "SADDLE R RAILROAD AVE",
    "latitude": 40.903555,
    "longitude": -74.081166,
    "observation_count": 2,
    "confidence_level": "Low",
    "mean_nitrate_mg_L": 5.075,
    "p90_nitrate_mg_L": 5.9350000000000005,
    "max_nitrate_mg_L": 6.15,
    "is_hotspot": 1,
    "detail_json": "station_details/NJDEP_BFBM-AN0290.json"
  },
  {
    "station_id": "NJDEP_BFBM-01412800",
    "station_name": "COHANSEY RIVER AT SEELEY",
    "latitude": 39.4726,
    "longitude": -75.2554,
    "observation_count": 3,
    "confidence_level": "Low",
    "mean_nitrate_mg_L": 5.56,
    "p90_nitrate_mg_L": 5.93,
    "max_nitrate_mg_L": 6.05,
    "is_hotspot": 1,
    "detail_json": "station_details/NJDEP_BFBM-01412800.json"
  },
  {
    "station_id": "NJDEP_BFBM-AN0291",
    "station_name": "SADDLE R MARCELLUS PL + SADDLE R AVE",
    "latitude": 40.864083,
    "longitude": -74.101555,
    "observation_count": 2,
    "confidence_level": "Low",
    "mean_nitrate_mg_L": 5.15,
    "p90_nitrate_mg_L": 5.91,
    "max_nitrate_mg_L": 6.1,
    "is_hotspot": 1,
    "detail_json": "station_details/NJDEP_BFBM-AN0291.json"
  },
  {
    "station_id": "NJDEP_BFBM-01401500",
    "station_name": "Millstone River near Kingston NJ",
    "latitude": 40.38444,
    "longitude": -74.62306,
    "observation_count": 1,
    "confidence_level": "Low",
    "mean_nitrate_mg_L": 5.9,
    "p90_nitrate_mg_L": 5.9,
    "max_nitrate_mg_L": 5.9,
    "is_hotspot": 1,
    "detail_json": "station_details/NJDEP_BFBM-01401500.json"
  },
  {
    "station_id": "NJDEP_BFBM-AN0715B",
    "station_name": "Rocaps Run at Burlington Rd",
    "latitude": 39.41013802,
    "longitude": -75.21039142,
    "observation_count": 1,
    "confidence_level": "Low",
    "mean_nitrate_mg_L": 5.9,
    "p90_nitrate_mg_L": 5.9,
    "max_nitrate_mg_L": 5.9,
    "is_hotspot": 1,
    "detail_json": "station_details/NJDEP_BFBM-AN0715B.json"
  },
  {
    "station_id": "MRRI-NJSEA-Meadowlands(12)",
    "station_name": "Overpeck Creek",
    "latitude": 40.83889,
    "longitude": -74.01639,
    "observation_count": 10,
    "confidence_level": "Low",
    "mean_nitrate_mg_L": 3.6335,
    "p90_nitrate_mg_L": 5.642999999999996,
    "max_nitrate_mg_L": 16.38,
    "is_hotspot": 1,
    "detail_json": "station_details/MRRI-NJSEA-Meadowlands_12.json"
  },
  {
    "station_id": "NJDEP_BFBM-AN0273",
    "station_name": "PREAKNESS BK MOUNTAIN RD FRENCH HILL RD",
    "latitude": 40.915083,
    "longitude": -74.242416,
    "observation_count": 2,
    "confidence_level": "Low",
    "mean_nitrate_mg_L": 3.665,
    "p90_nitrate_mg_L": 5.629,
    "max_nitrate_mg_L": 6.12,
    "is_hotspot": 1,
    "detail_json": "station_details/NJDEP_BFBM-AN0273.json"
  },
  {
    "station_id": "MRRI-NJSEA-Overpeck Creek",
    "station_name": "Overpeck Creek",
    "latitude": 40.83889,
    "longitude": -74.01639,
    "observation_count": 80,
    "confidence_level": "Medium",
    "mean_nitrate_mg_L": 2.8078279838709674,
    "p90_nitrate_mg_L": 5.623050000000003,
    "max_nitrate_mg_L": 15.093,
    "is_hotspot": 1,
    "detail_json": "station_details/MRRI-NJSEA-Overpeck_Creek.json"
  },
  {
    "station_id": "NJDEP_BFBM-01411695",
    "station_name": "INDIAN RUN ON HUSTED STATION ROAD",
    "latitude": 39.53564,
    "longitude": -75.183926,
    "observation_count": 5,
    "confidence_level": "Low",
    "mean_nitrate_mg_L": 4.198,
    "p90_nitrate_mg_L": 5.616,
    "max_nitrate_mg_L": 5.92,
    "is_hotspot": 1,
    "detail_json": "station_details/NJDEP_BFBM-01411695.json"
  },
  {
    "station_id": "NJDEP_BFBM-AN0382",
    "station_name": "MILLSTONE RIVER GROVERS MILL RD",
    "latitude": 40.322138,
    "longitude": -74.607972,
    "observation_count": 3,
    "confidence_level": "Low",
    "mean_nitrate_mg_L": 4.226666666666667,
    "p90_nitrate_mg_L": 5.614,
    "max_nitrate_mg_L": 6.05,
    "is_hotspot": 1,
    "detail_json": "station_details/NJDEP_BFBM-AN0382.json"
  },
  {
    "station_id": "NJ_MSU-04-070-1-A-S",
    "station_name": "Mainstreet outfall, Hampton",
    "latitude": 40.70844,
    "longitude": -74.96353,
    "observation_count": 3,
    "confidence_level": "Low",
    "mean_nitrate_mg_L": 3.986333333333333,
    "p90_nitrate_mg_L": 5.572,
    "max_nitrate_mg_L": 5.81,
    "is_hotspot": 1,
    "detail_json": "station_details/NJ_MSU-04-070-1-A-S.json"
  },
  {
    "station_id": "NJDEP_BFBM-NJLM-1119-3",
    "station_name": "Duhernal Lake-3",
    "latitude": 40.405987,
    "longitude": -74.368668,
    "observation_count": 17,
    "confidence_level": "Low",
    "mean_nitrate_mg_L": 2.8662941176470587,
    "p90_nitrate_mg_L": 5.466,
    "max_nitrate_mg_L": 6.2,
    "is_hotspot": 1,
    "detail_json": "station_details/NJDEP_BFBM-NJLM-1119-3.json"
  },
  {
    "station_id": "RCE WRP-S4",
    "station_name": "Salem River tributary 1 at Route 40",
    "latitude": 39.62584653,
    "longitude": -75.25228874,
    "observation_count": 52,
    "confidence_level": "Medium",
    "mean_nitrate_mg_L": 3.656538461538461,
    "p90_nitrate_mg_L": 5.405,
    "max_nitrate_mg_L": 7.16,
    "is_hotspot": 1,
    "detail_json": "station_details/RCE_WRP-S4.json"
  },
  {
    "station_id": "NJDEP_BFBM-01482455",
    "station_name": "SALEM RIVER AT ROUTE 77 NEAR POLE TAVERN NJ",
    "latitude": 39.602614,
    "longitude": -75.237686,
    "observation_count": 96,
    "confidence_level": "Medium",
    "mean_nitrate_mg_L": 4.873958333333333,
    "p90_nitrate_mg_L": 5.395,
    "max_nitrate_mg_L": 5.85,
    "is_hotspot": 1,
    "detail_json": "station_details/NJDEP_BFBM-01482455.json"
  },
  {
    "station_id": "NJ_MSU-03-1453-4-A-T",
    "station_name": "UNT Asbury TBD",
    "latitude": 40.69527,
    "longitude": -75.01672,
    "observation_count": 8,
    "confidence_level": "Low",
    "mean_nitrate_mg_L": 4.12924625,
    "p90_nitrate_mg_L": 5.363,
    "max_nitrate_mg_L": 5.58,
    "is_hotspot": 1,
    "detail_json": "station_details/NJ_MSU-03-1453-4-A-T.json"
  },
  {
    "station_id": "NJDEP_BFBM-PL020",
    "station_name": "UNT to Deep Run at Hammonton Rd",
    "latitude": 39.5225,
    "longitude": -74.9201,
    "observation_count": 1,
    "confidence_level": "Low",
    "mean_nitrate_mg_L": 5.35,
    "p90_nitrate_mg_L": 5.35,
    "max_nitrate_mg_L": 5.35,
    "is_hotspot": 1,
    "detail_json": "station_details/NJDEP_BFBM-PL020.json"
  },
  {
    "station_id": "NJDEP_BFBM-AN0747",
    "station_name": "INDIAN RUN HUSTED STATION RD ABV CENTERTON POND",
    "latitude": 39.535638,
    "longitude": -75.183916,
    "observation_count": 2,
    "confidence_level": "Low",
    "mean_nitrate_mg_L": 4.225,
    "p90_nitrate_mg_L": 5.333,
    "max_nitrate_mg_L": 5.61,
    "is_hotspot": 1,
    "detail_json": "station_details/NJDEP_BFBM-AN0747.json"
  },
  {
    "station_id": "MRRI-NJSEA-Meadowlands(4)",
    "station_name": "Amtrack Bridge",
    "latitude": 40.77788,
    "longitude": -74.09042,
    "observation_count": 11,
    "confidence_level": "Low",
    "mean_nitrate_mg_L": 4.126363636363636,
    "p90_nitrate_mg_L": 5.32,
    "max_nitrate_mg_L": 14.38,
    "is_hotspot": 1,
    "detail_json": "station_details/MRRI-NJSEA-Meadowlands_4.json"
  },
  {
    "station_id": "RCE WRP-S1",
    "station_name": "Salem River below the Salem River Reservoir",
    "latitude": 39.60481506,
    "longitude": -75.24499073,
    "observation_count": 54,
    "confidence_level": "Medium",
    "mean_nitrate_mg_L": 4.6338888888888885,
    "p90_nitrate_mg_L": 5.265000000000001,
    "max_nitrate_mg_L": 5.59,
    "is_hotspot": 1,
    "detail_json": "station_details/RCE_WRP-S1.json"
  },
  {
    "station_id": "NJDEP_BFBM-AN0712",
    "station_name": "COHANSEY RIVER SILVER LAKE RD",
    "latitude": 39.472611,
    "longitude": -75.255388,
    "observation_count": 2,
    "confidence_level": "Low",
    "mean_nitrate_mg_L": 5.225,
    "p90_nitrate_mg_L": 5.245,
    "max_nitrate_mg_L": 5.25,
    "is_hotspot": 1,
    "detail_json": "station_details/NJDEP_BFBM-AN0712.json"
  },
  {
    "station_id": "NJDEP_BFBM-AN0437",
    "station_name": "MANALAPAN BROOK AT RT 524",
    "latitude": 40.201086,
    "longitude": -74.377215,
    "observation_count": 3,
    "confidence_level": "Low",
    "mean_nitrate_mg_L": 4.79,
    "p90_nitrate_mg_L": 5.226,
    "max_nitrate_mg_L": 5.3,
    "is_hotspot": 1,
    "detail_json": "station_details/NJDEP_BFBM-AN0437.json"
  },
  {
    "station_id": "NJDEP_BFBM-FIBI267",
    "station_name": "Barrett Run at Barretts Run Rd",
    "latitude": 39.444251,
    "longitude": -75.274137,
    "observation_count": 1,
    "confidence_level": "Low",
    "mean_nitrate_mg_L": 5.18,
    "p90_nitrate_mg_L": 5.18,
    "max_nitrate_mg_L": 5.18,
    "is_hotspot": 1,
    "detail_json": "station_details/NJDEP_BFBM-FIBI267.json"
  },
  {
    "station_id": "DRBC-1820 BCP",
    "station_name": "Lopatcong Creek at driveway above Phillipsburg WWTP",
    "latitude": 40.67949,
    "longitude": -75.17499,
    "observation_count": 84,
    "confidence_level": "Medium",
    "mean_nitrate_mg_L": 3.9737476190476193,
    "p90_nitrate_mg_L": 5.164,
    "max_nitrate_mg_L": 6.0455,
    "is_hotspot": 1,
    "detail_json": "station_details/DRBC-1820_BCP.json"
  },
  {
    "station_id": "NJDEP_BFBM-01412710",
    "station_name": "FOSTER RN AT SEELEY NJ",
    "latitude": 39.483377,
    "longitude": -75.25379,
    "observation_count": 3,
    "confidence_level": "Low",
    "mean_nitrate_mg_L": 4.206666666666666,
    "p90_nitrate_mg_L": 5.138,
    "max_nitrate_mg_L": 5.51,
    "is_hotspot": 1,
    "detail_json": "station_details/NJDEP_BFBM-01412710.json"
  },
  {
    "station_id": "NJDEP_BFBM-01412005",
    "station_name": "MENANTICO CREEK AT ROUTE 49 AT MILLVILLE NJ",
    "latitude": 39.386361,
    "longitude": -74.989306,
    "observation_count": 9,
    "confidence_level": "Low",
    "mean_nitrate_mg_L": 4.245555555555556,
    "p90_nitrate_mg_L": 5.0760000000000005,
    "max_nitrate_mg_L": 5.74,
    "is_hotspot": 1,
    "detail_json": "station_details/NJDEP_BFBM-01412005.json"
  },
  {
    "station_id": "NJDEP_BFBM-BFBM000343",
    "station_name": "Salem R trib at Courses Landing Rd",
    "latitude": 39.664985,
    "longitude": -75.407693,
    "observation_count": 13,
    "confidence_level": "Low",
    "mean_nitrate_mg_L": 3.1784615384615384,
    "p90_nitrate_mg_L": 5.054,
    "max_nitrate_mg_L": 5.45,
    "is_hotspot": 1,
    "detail_json": "station_details/NJDEP_BFBM-BFBM000343.json"
  },
  {
    "station_id": "NJDEP_BFBM-FIBI208",
    "station_name": "Menantico Creek at Main Street",
    "latitude": 39.38668,
    "longitude": -74.98872,
    "observation_count": 2,
    "confidence_level": "Low",
    "mean_nitrate_mg_L": 4.72,
    "p90_nitrate_mg_L": 5.024,
    "max_nitrate_mg_L": 5.1,
    "is_hotspot": 1,
    "detail_json": "station_details/NJDEP_BFBM-FIBI208.json"
  },
  {
    "station_id": "NJDEP_BFBM-BFBM000308",
    "station_name": "Millstone River at Rt 518",
    "latitude": 40.399541,
    "longitude": -74.629062,
    "observation_count": 29,
    "confidence_level": "Low",
    "mean_nitrate_mg_L": 2.5835172413793104,
    "p90_nitrate_mg_L": 4.988,
    "max_nitrate_mg_L": 6.42,
    "is_hotspot": 1,
    "detail_json": "station_details/NJDEP_BFBM-BFBM000308.json"
  },
  {
    "station_id": "NJDEP_BFBM-NJS11-156a",
    "station_name": "Peckman River at McBride Ave",
    "latitude": 40.89024,
    "longitude": -74.211984,
    "observation_count": 1,
    "confidence_level": "Low",
    "mean_nitrate_mg_L": 4.96,
    "p90_nitrate_mg_L": 4.96,
    "max_nitrate_mg_L": 4.96,
    "is_hotspot": 1,
    "detail_json": "station_details/NJDEP_BFBM-NJS11-156a.json"
  },
  {
    "station_id": "NJDEP_BFBM-01379200",
    "station_name": "DEAD RIVER NEAR MILLINGTON",
    "latitude": 40.64973,
    "longitude": -74.5242,
    "observation_count": 3,
    "confidence_level": "Low",
    "mean_nitrate_mg_L": 4.086666666666667,
    "p90_nitrate_mg_L": 4.902,
    "max_nitrate_mg_L": 4.99,
    "is_hotspot": 1,
    "detail_json": "station_details/NJDEP_BFBM-01379200.json"
  },
  {
    "station_id": "GSWA-LB1",
    "station_name": "LB1",
    "latitude": 40.738375,
    "longitude": -74.44595,
    "observation_count": 7,
    "confidence_level": "Low",
    "mean_nitrate_mg_L": 3.686571428571429,
    "p90_nitrate_mg_L": 4.7942,
    "max_nitrate_mg_L": 5.3,
    "is_hotspot": 1,
    "detail_json": "station_details/GSWA-LB1.json"
  },
  {
    "station_id": "RCE WRP-S8",
    "station_name": "Salem River below Avis Mill Pond",
    "latitude": 39.63555207,
    "longitude": -75.29361382,
    "observation_count": 52,
    "confidence_level": "Medium",
    "mean_nitrate_mg_L": 3.066346153846154,
    "p90_nitrate_mg_L": 4.745,
    "max_nitrate_mg_L": 6.27,
    "is_hotspot": 1,
    "detail_json": "station_details/RCE_WRP-S8.json"
  },
  {
    "station_id": "NJDEP_BFBM-BA122A",
    "station_name": "MILLSTONE R ON RTE 632 (GRIGGSTOWN CAUSEWAY) GRIGGSTOWN",
    "latitude": 40.439104,
    "longitude": -74.617914,
    "observation_count": 1,
    "confidence_level": "Low",
    "mean_nitrate_mg_L": 4.74,
    "p90_nitrate_mg_L": 4.74,
    "max_nitrate_mg_L": 4.74,
    "is_hotspot": 1,
    "detail_json": "station_details/NJDEP_BFBM-BA122A.json"
  },
  {
    "station_id": "NARS_WQX-NJLS-1043",
    "station_name": "Saddle River",
    "latitude": 40.91547,
    "longitude": -74.08986,
    "observation_count": 1,
    "confidence_level": "Low",
    "mean_nitrate_mg_L": 4.725,
    "p90_nitrate_mg_L": 4.725,
    "max_nitrate_mg_L": 4.725,
    "is_hotspot": 1,
    "detail_json": "station_details/NARS_WQX-NJLS-1043.json"
  },
  {
    "station_id": "NJDEP_BFBM-01455099",
    "station_name": "Lopatcong Creek at Lock St at Phillipsburg",
    "latitude": 40.677319,
    "longitude": -75.167182,
    "observation_count": 10,
    "confidence_level": "Low",
    "mean_nitrate_mg_L": 3.788,
    "p90_nitrate_mg_L": 4.714,
    "max_nitrate_mg_L": 4.93,
    "is_hotspot": 1,
    "detail_json": "station_details/NJDEP_BFBM-01455099.json"
  },
  {
    "station_id": "NJHDG-25",
    "station_name": "Raritan River - Head of Tide",
    "latitude": 40.5661,
    "longitude": -74.52551,
    "observation_count": 436,
    "confidence_level": "High",
    "mean_nitrate_mg_L": 2.737803211009174,
    "p90_nitrate_mg_L": 4.6976,
    "max_nitrate_mg_L": 17.2,
    "is_hotspot": 1,
    "detail_json": "station_details/NJHDG-25.json"
  },
  {
    "station_id": "NJDEP_BFBM-BFBM000416",
    "station_name": "Rockaway Creek Tributary at Halls Mill Road",
    "latitude": 40.64664127,
    "longitude": -74.77495859,
    "observation_count": 1,
    "confidence_level": "Low",
    "mean_nitrate_mg_L": 4.69,
    "p90_nitrate_mg_L": 4.69,
    "max_nitrate_mg_L": 4.69,
    "is_hotspot": 1,
    "detail_json": "station_details/NJDEP_BFBM-BFBM000416.json"
  },
  {
    "station_id": "NJDEP_BFBM-NJW04459-120-1",
    "station_name": "Sunset Lake - 1",
    "latitude": 39.450575,
    "longitude": -75.241785,
    "observation_count": 7,
    "confidence_level": "Low",
    "mean_nitrate_mg_L": 3.97,
    "p90_nitrate_mg_L": 4.646000000000001,
    "max_nitrate_mg_L": 4.82,
    "is_hotspot": 1,
    "detail_json": "station_details/NJDEP_BFBM-NJW04459-120-1.json"
  },
  {
    "station_id": "NJDEP_BFBM-01401705",
    "station_name": "Beden Brook trib 4 near Rocky Hill NJ",
    "latitude": 40.421134,
    "longitude": -74.63481,
    "observation_count": 5,
    "confidence_level": "Low",
    "mean_nitrate_mg_L": 2.2096,
    "p90_nitrate_mg_L": 4.614000000000001,
    "max_nitrate_mg_L": 6.61,
    "is_hotspot": 1,
    "detail_json": "station_details/NJDEP_BFBM-01401705.json"
  },
  {
    "station_id": "MRRI-NJSEA-Meadowlands(2)",
    "station_name": "Hackensack River Turnpike",
    "latitude": 40.82472,
    "longitude": -74.03555,
    "observation_count": 11,
    "confidence_level": "Low",
    "mean_nitrate_mg_L": 5.008181818181819,
    "p90_nitrate_mg_L": 4.6,
    "max_nitrate_mg_L": 30.82,
    "is_hotspot": 1,
    "detail_json": "station_details/MRRI-NJSEA-Meadowlands_2.json"
  },
  {
    "station_id": "NJDEP_BFBM-NJW04459-014-1",
    "station_name": "Burnt Mill Pond-17-1",
    "latitude": 39.532569,
    "longitude": -75.042517,
    "observation_count": 3,
    "confidence_level": "Low",
    "mean_nitrate_mg_L": 4.256666666666667,
    "p90_nitrate_mg_L": 4.572,
    "max_nitrate_mg_L": 4.62,
    "is_hotspot": 1,
    "detail_json": "station_details/NJDEP_BFBM-NJW04459-014-1.json"
  },
  {
    "station_id": "RCE WRP-S9",
    "station_name": "Salem River below East Lake",
    "latitude": 39.64259877,
    "longitude": -75.31570874,
    "observation_count": 52,
    "confidence_level": "Medium",
    "mean_nitrate_mg_L": 2.604423076923077,
    "p90_nitrate_mg_L": 4.444999999999999,
    "max_nitrate_mg_L": 6.04,
    "is_hotspot": 1,
    "detail_json": "station_details/RCE_WRP-S9.json"
  },
  {
    "station_id": "NJDEP_BFBM-AN0414A",
    "station_name": "Millstone River at park access of Lincoln Ave",
    "latitude": 40.53099,
    "longitude": -74.587278,
    "observation_count": 4,
    "confidence_level": "Low",
    "mean_nitrate_mg_L": 3.0025,
    "p90_nitrate_mg_L": 4.413,
    "max_nitrate_mg_L": 4.71,
    "is_hotspot": 1,
    "detail_json": "station_details/NJDEP_BFBM-AN0414A.json"
  },
  {
    "station_id": "NJDEP_BFBM-FIBI122",
    "station_name": "Hohokus Brook at Saddle River County Park",
    "latitude": 40.961244,
    "longitude": -74.106296,
    "observation_count": 1,
    "confidence_level": "Low",
    "mean_nitrate_mg_L": 4.4,
    "p90_nitrate_mg_L": 4.4,
    "max_nitrate_mg_L": 4.4,
    "is_hotspot": 1,
    "detail_json": "station_details/NJDEP_BFBM-FIBI122.json"
  },
  {
    "station_id": "NJDEP_BFBM-AN0220",
    "station_name": "LOANTAKA BK BLUESTONE TERRACE",
    "latitude": 40.771805,
    "longitude": -74.46075,
    "observation_count": 2,
    "confidence_level": "Low",
    "mean_nitrate_mg_L": 2.822,
    "p90_nitrate_mg_L": 4.388400000000001,
    "max_nitrate_mg_L": 4.78,
    "is_hotspot": 1,
    "detail_json": "station_details/NJDEP_BFBM-AN0220.json"
  },
  {
    "station_id": "NJDEP_BFBM-AN0053",
    "station_name": "LOPATCONG CK ALT RT 22 NR BRIDGE 2104-151/23",
    "latitude": 40.677333,
    "longitude": -75.167194,
    "observation_count": 2,
    "confidence_level": "Low",
    "mean_nitrate_mg_L": 3.95,
    "p90_nitrate_mg_L": 4.382000000000001,
    "max_nitrate_mg_L": 4.49,
    "is_hotspot": 1,
    "detail_json": "station_details/NJDEP_BFBM-AN0053.json"
  },
  {
    "station_id": "NJDEP_BFBM-01411686",
    "station_name": "Indian Run at Burlington Road near Greenville NJ",
    "latitude": 39.55985,
    "longitude": -75.20127,
    "observation_count": 10,
    "confidence_level": "Low",
    "mean_nitrate_mg_L": 2.36786,
    "p90_nitrate_mg_L": 4.372,
    "max_nitrate_mg_L": 4.48,
    "is_hotspot": 1,
    "detail_json": "station_details/NJDEP_BFBM-01411686.json"
  },
  {
    "station_id": "NJDEP_BFBM-NJS11-252",
    "station_name": "Burnt Mill Branch off N. Mill Rd",
    "latitude": 39.530253,
    "longitude": -75.055499,
    "observation_count": 2,
    "confidence_level": "Low",
    "mean_nitrate_mg_L": 3.485,
    "p90_nitrate_mg_L": 4.369,
    "max_nitrate_mg_L": 4.59,
    "is_hotspot": 1,
    "detail_json": "station_details/NJDEP_BFBM-NJS11-252.json"
  },
  {
    "station_id": "MRRI-NJSEA-Meadowlands(13)",
    "station_name": "Kearny Marsh",
    "latitude": 40.75999,
    "longitude": -74.11745,
    "observation_count": 4,
    "confidence_level": "Low",
    "mean_nitrate_mg_L": 1.96,
    "p90_nitrate_mg_L": 4.355,
    "max_nitrate_mg_L": 5.6,
    "is_hotspot": 1,
    "detail_json": "station_details/MRRI-NJSEA-Meadowlands_13.json"
  },
  {
    "station_id": "RCE WRP-S10",
    "station_name": "Salem River at Woodstown Station, 01482500",
    "latitude": 39.64172018,
    "longitude": -75.33057146,
    "observation_count": 40,
    "confidence_level": "Medium",
    "mean_nitrate_mg_L": 2.779825,
    "p90_nitrate_mg_L": 4.325,
    "max_nitrate_mg_L": 20.7,
    "is_hotspot": 1,
    "detail_json": "station_details/RCE_WRP-S10.json"
  },
  {
    "station_id": "NJDEP_BFBM-AN0227",
    "station_name": "DEAD R KING GEORGE RD",
    "latitude": 40.64975,
    "longitude": -74.524194,
    "observation_count": 2,
    "confidence_level": "Low",
    "mean_nitrate_mg_L": 3.73,
    "p90_nitrate_mg_L": 4.258,
    "max_nitrate_mg_L": 4.39,
    "is_hotspot": 1,
    "detail_json": "station_details/NJDEP_BFBM-AN0227.json"
  },
  {
    "station_id": "NJDEP_BFBM-BFBM000199",
    "station_name": "Oldmans Creek tributary",
    "latitude": 39.689558,
    "longitude": -75.273055,
    "observation_count": 9,
    "confidence_level": "Low",
    "mean_nitrate_mg_L": 2.3526666666666665,
    "p90_nitrate_mg_L": 4.254,
    "max_nitrate_mg_L": 4.51,
    "is_hotspot": 1,
    "detail_json": "station_details/NJDEP_BFBM-BFBM000199.json"
  },
  {
    "station_id": "NJDEP_BMWM-R47",
    "station_name": "R47",
    "latitude": 39.426840638,
    "longitude": -75.23609839,
    "observation_count": 88,
    "confidence_level": "Medium",
    "mean_nitrate_mg_L": 2.990644886113948,
    "p90_nitrate_mg_L": 4.25298,
    "max_nitrate_mg_L": 5.79,
    "is_hotspot": 1,
    "detail_json": "station_details/NJDEP_BMWM-R47.json"
  },
  {
    "station_id": "NJDEP_BFBM-AN0761",
    "station_name": "BERRYMAN BR RT 49",
    "latitude": 39.387694,
    "longitude": -74.993472,
    "observation_count": 2,
    "confidence_level": "Low",
    "mean_nitrate_mg_L": 3.265,
    "p90_nitrate_mg_L": 4.237,
    "max_nitrate_mg_L": 4.48,
    "is_hotspot": 1,
    "detail_json": "station_details/NJDEP_BFBM-AN0761.json"
  },
  {
    "station_id": "NJDEP_BFBM-01382000",
    "station_name": "PASSAIC RIVER AT TWO BRIDGES NJ",
    "latitude": 40.8972,
    "longitude": -74.2729,
    "observation_count": 3,
    "confidence_level": "Low",
    "mean_nitrate_mg_L": 2.630333333333333,
    "p90_nitrate_mg_L": 4.156000000000001,
    "max_nitrate_mg_L": 4.61,
    "is_hotspot": 1,
    "detail_json": "station_details/NJDEP_BFBM-01382000.json"
  },
  {
    "station_id": "NJDEP_BFBM-BFBM000194",
    "station_name": "Capoolong Creek tributary",
    "latitude": 40.571585,
    "longitude": -74.926922,
    "observation_count": 8,
    "confidence_level": "Low",
    "mean_nitrate_mg_L": 3.435,
    "p90_nitrate_mg_L": 4.132,
    "max_nitrate_mg_L": 4.51,
    "is_hotspot": 1,
    "detail_json": "station_details/NJDEP_BFBM-BFBM000194.json"
  },
  {
    "station_id": "DRBC-1774 BCP",
    "station_name": "Pohatcong Creek at River Rd",
    "latitude": 40.62472,
    "longitude": -75.18611,
    "observation_count": 90,
    "confidence_level": "Medium",
    "mean_nitrate_mg_L": 2.978337777777778,
    "p90_nitrate_mg_L": 4.119000000000001,
    "max_nitrate_mg_L": 4.53,
    "is_hotspot": 1,
    "detail_json": "station_details/DRBC-1774_BCP.json"
  },
  {
    "station_id": "NJDEP_BFBM-NJS11-164",
    "station_name": "Whippany River off Daniel Dr",
    "latitude": 40.821179,
    "longitude": -74.379573,
    "observation_count": 1,
    "confidence_level": "Low",
    "mean_nitrate_mg_L": 4.11,
    "p90_nitrate_mg_L": 4.11,
    "max_nitrate_mg_L": 4.11,
    "is_hotspot": 1,
    "detail_json": "station_details/NJDEP_BFBM-NJS11-164.json"
  },
  {
    "station_id": "NJDEP_BFBM-01403000",
    "station_name": "Raritan River Off Rt 623 and D&R canal path",
    "latitude": 40.550403,
    "longitude": -74.551894,
    "observation_count": 1,
    "confidence_level": "Low",
    "mean_nitrate_mg_L": 4.1,
    "p90_nitrate_mg_L": 4.1,
    "max_nitrate_mg_L": 4.1,
    "is_hotspot": 1,
    "detail_json": "station_details/NJDEP_BFBM-01403000.json"
  },
  {
    "station_id": "NJDEP_BFBM-AN0061",
    "station_name": "POHATCONG CK CARPENTERSVILLE RD",
    "latitude": 40.624972,
    "longitude": -75.185777,
    "observation_count": 2,
    "confidence_level": "Low",
    "mean_nitrate_mg_L": 3.3150000000000004,
    "p90_nitrate_mg_L": 3.983000000000001,
    "max_nitrate_mg_L": 4.15,
    "is_hotspot": 1,
    "detail_json": "station_details/NJDEP_BFBM-AN0061.json"
  },
  {
    "station_id": "NJDEP_BFBM-NJW04459-061-1",
    "station_name": "Jeddys Pond - 1",
    "latitude": 39.433215,
    "longitude": -75.23953,
    "observation_count": 2,
    "confidence_level": "Low",
    "mean_nitrate_mg_L": 3.0700000000000003,
    "p90_nitrate_mg_L": 3.974,
    "max_nitrate_mg_L": 4.2,
    "is_hotspot": 1,
    "detail_json": "station_details/NJDEP_BFBM-NJW04459-061-1.json"
  },
  {
    "station_id": "NJDEP_BFBM-NJW04459-120-2",
    "station_name": "Sunset Lake - 2",
    "latitude": 39.448293,
    "longitude": -75.237716,
    "observation_count": 7,
    "confidence_level": "Low",
    "mean_nitrate_mg_L": 3.5614285714285714,
    "p90_nitrate_mg_L": 3.96,
    "max_nitrate_mg_L": 4.08,
    "is_hotspot": 1,
    "detail_json": "station_details/NJDEP_BFBM-NJW04459-120-2.json"
  },
  {
    "station_id": "NJDEP_BFBM-NJLM-0285-3",
    "station_name": "Elmer Lake - 3",
    "latitude": 39.59584,
    "longitude": -75.16558,
    "observation_count": 4,
    "confidence_level": "Low",
    "mean_nitrate_mg_L": 3.43,
    "p90_nitrate_mg_L": 3.934,
    "max_nitrate_mg_L": 3.94,
    "is_hotspot": 1,
    "detail_json": "station_details/NJDEP_BFBM-NJLM-0285-3.json"
  },
  {
    "station_id": "GSWA-LB5A",
    "station_name": "LB5A",
    "latitude": 40.782149,
    "longitude": -74.464816,
    "observation_count": 8,
    "confidence_level": "Low",
    "mean_nitrate_mg_L": 2.870875,
    "p90_nitrate_mg_L": 3.9051,
    "max_nitrate_mg_L": 3.917,
    "is_hotspot": 1,
    "detail_json": "station_details/GSWA-LB5A.json"
  },
  {
    "station_id": "RCE WRP-S3",
    "station_name": "Salem River and Tributary 1 confluence at Commissioner's Pik",
    "latitude": 39.61976058,
    "longitude": -75.26820847,
    "observation_count": 45,
    "confidence_level": "Medium",
    "mean_nitrate_mg_L": 2.1444444444444444,
    "p90_nitrate_mg_L": 3.904,
    "max_nitrate_mg_L": 4.25,
    "is_hotspot": 1,
    "detail_json": "station_details/RCE_WRP-S3.json"
  },
  {
    "station_id": "NJDEP_BFBM-0140941580",
    "station_name": "Hammonton Creek tributary near Wescoatville NJ",
    "latitude": 39.642222,
    "longitude": -74.737222,
    "observation_count": 10,
    "confidence_level": "Low",
    "mean_nitrate_mg_L": 2.7142,
    "p90_nitrate_mg_L": 3.8972,
    "max_nitrate_mg_L": 4.43,
    "is_hotspot": 1,
    "detail_json": "station_details/NJDEP_BFBM-0140941580.json"
  },
  {
    "station_id": "NJDEP_BFBM-BFBM000366",
    "station_name": "Whippany R at Perrine Rd",
    "latitude": 40.824383,
    "longitude": -74.3708,
    "observation_count": 7,
    "confidence_level": "Low",
    "mean_nitrate_mg_L": 2.7428571428571438,
    "p90_nitrate_mg_L": 3.844,
    "max_nitrate_mg_L": 4.24,
    "is_hotspot": 1,
    "detail_json": "station_details/NJDEP_BFBM-BFBM000366.json"
  },
  {
    "station_id": "NJDEP_BFBM-BFBM000240",
    "station_name": "Salem R UNT at Commissioners Pike (CR 581)",
    "latitude": 39.644268,
    "longitude": -75.25188,
    "observation_count": 84,
    "confidence_level": "Medium",
    "mean_nitrate_mg_L": 2.907380952380952,
    "p90_nitrate_mg_L": 3.837,
    "max_nitrate_mg_L": 4.4,
    "is_hotspot": 1,
    "detail_json": "station_details/NJDEP_BFBM-BFBM000240.json"
  },
  {
    "station_id": "DRBC-NUTR-PESO",
    "station_name": "Pennsauken Creek South Branch",
    "latitude": 39.954196,
    "longitude": -75.013308,
    "observation_count": 17,
    "confidence_level": "Low",
    "mean_nitrate_mg_L": 2.1808235242117644,
    "p90_nitrate_mg_L": 3.829600048100001,
    "max_nitrate_mg_L": 5.3499999046,
    "is_hotspot": 1,
    "detail_json": "station_details/DRBC-NUTR-PESO.json"
  },
  {
    "station_id": "NARS_WQX-NRS_NJ-10074",
    "station_name": "Weasel Brook",
    "latitude": 40.87942087,
    "longitude": -74.17183043,
    "observation_count": 1,
    "confidence_level": "Low",
    "mean_nitrate_mg_L": 3.8242,
    "p90_nitrate_mg_L": 3.8242,
    "max_nitrate_mg_L": 3.8242,
    "is_hotspot": 1,
    "detail_json": "station_details/NARS_WQX-NRS_NJ-10074.json"
  },
  {
    "station_id": "NJDEP_BFBM-NJW04459-120-O",
    "station_name": "Sunset Lake - OUTLET",
    "latitude": 39.446443,
    "longitude": -75.234961,
    "observation_count": 3,
    "confidence_level": "Low",
    "mean_nitrate_mg_L": 2.486666666666667,
    "p90_nitrate_mg_L": 3.824,
    "max_nitrate_mg_L": 3.89,
    "is_hotspot": 1,
    "detail_json": "station_details/NJDEP_BFBM-NJW04459-120-O.json"
  },
  {
    "station_id": "MRRI-NJSEA-Meadowlands(1)",
    "station_name": "North Hackensack",
    "latitude": 40.84944,
    "longitude": -74.03028,
    "observation_count": 11,
    "confidence_level": "Low",
    "mean_nitrate_mg_L": 3.5318181818181817,
    "p90_nitrate_mg_L": 3.82,
    "max_nitrate_mg_L": 17.4,
    "is_hotspot": 1,
    "detail_json": "station_details/MRRI-NJSEA-Meadowlands_1.json"
  },
  {
    "station_id": "NJDEP_BFBM-AN0362",
    "station_name": "COLD BR VLIETTOWN RD",
    "latitude": 40.675,
    "longitude": -74.737805,
    "observation_count": 2,
    "confidence_level": "Low",
    "mean_nitrate_mg_L": 2.965,
    "p90_nitrate_mg_L": 3.817,
    "max_nitrate_mg_L": 4.03,
    "is_hotspot": 1,
    "detail_json": "station_details/NJDEP_BFBM-AN0362.json"
  },
  {
    "station_id": "NJDEP_BFBM-01413020",
    "station_name": "Indian Fields Branch at Bridgeton NJ",
    "latitude": 39.434475,
    "longitude": -75.218568,
    "observation_count": 14,
    "confidence_level": "Low",
    "mean_nitrate_mg_L": 3.507857142857143,
    "p90_nitrate_mg_L": 3.787,
    "max_nitrate_mg_L": 4.32,
    "is_hotspot": 1,
    "detail_json": "station_details/NJDEP_BFBM-01413020.json"
  },
  {
    "station_id": "NJDEP_BFBM-01402500",
    "station_name": "Millstone River at Amwell Road",
    "latitude": 40.50299181,
    "longitude": -74.58699838,
    "observation_count": 1,
    "confidence_level": "Low",
    "mean_nitrate_mg_L": 3.74,
    "p90_nitrate_mg_L": 3.74,
    "max_nitrate_mg_L": 3.74,
    "is_hotspot": 1,
    "detail_json": "station_details/NJDEP_BFBM-01402500.json"
  },
  {
    "station_id": "NJDEP_BFBM-AN0709",
    "station_name": "COHANSEY RIVER BEAL RD",
    "latitude": 39.54475,
    "longitude": -75.274861,
    "observation_count": 11,
    "confidence_level": "Low",
    "mean_nitrate_mg_L": 2.9845454545454544,
    "p90_nitrate_mg_L": 3.7,
    "max_nitrate_mg_L": 5.55,
    "is_hotspot": 1,
    "detail_json": "station_details/NJDEP_BFBM-AN0709.json"
  },
  {
    "station_id": "NJDEP_BFBM-01402540",
    "station_name": "MILLSTONE R ON WILHOUSKY ST NEAR MANVILLE",
    "latitude": 40.53013,
    "longitude": -74.588,
    "observation_count": 10,
    "confidence_level": "Low",
    "mean_nitrate_mg_L": 2.508,
    "p90_nitrate_mg_L": 3.697,
    "max_nitrate_mg_L": 3.85,
    "is_hotspot": 1,
    "detail_json": "station_details/NJDEP_BFBM-01402540.json"
  },
  {
    "station_id": "NJDEP_BFBM-NJW04459-005-1",
    "station_name": "Gilman Lake-18-1",
    "latitude": 39.683439,
    "longitude": -75.184055,
    "observation_count": 3,
    "confidence_level": "Low",
    "mean_nitrate_mg_L": 3.0033333333333334,
    "p90_nitrate_mg_L": 3.686,
    "max_nitrate_mg_L": 3.9,
    "is_hotspot": 1,
    "detail_json": "station_details/NJDEP_BFBM-NJW04459-005-1.json"
  },
  {
    "station_id": "NJDEP_BFBM-01402000",
    "station_name": "MILLSTONE R AT BLACKWELLS MILLS NJ",
    "latitude": 40.4748,
    "longitude": -74.5759,
    "observation_count": 4,
    "confidence_level": "Low",
    "mean_nitrate_mg_L": 3.0075,
    "p90_nitrate_mg_L": 3.672,
    "max_nitrate_mg_L": 3.96,
    "is_hotspot": 1,
    "detail_json": "station_details/NJDEP_BFBM-01402000.json"
  },
  {
    "station_id": "NJDEP_BFBM-FIBI099",
    "station_name": "Wallkill River , Rt 94",
    "latitude": 41.1524,
    "longitude": -74.5816,
    "observation_count": 1,
    "confidence_level": "Low",
    "mean_nitrate_mg_L": 3.67,
    "p90_nitrate_mg_L": 3.67,
    "max_nitrate_mg_L": 3.67,
    "is_hotspot": 1,
    "detail_json": "station_details/NJDEP_BFBM-FIBI099.json"
  },
  {
    "station_id": "NJDEP_BFBM-NJS2016-017",
    "station_name": "Millstone R nr Melville Rd",
    "latitude": 40.316838,
    "longitude": -74.601036,
    "observation_count": 1,
    "confidence_level": "Low",
    "mean_nitrate_mg_L": 3.66,
    "p90_nitrate_mg_L": 3.66,
    "max_nitrate_mg_L": 3.66,
    "is_hotspot": 1,
    "detail_json": "station_details/NJDEP_BFBM-NJS2016-017.json"
  },
  {
    "station_id": "NJDEP_BFBM-AN0760",
    "station_name": "MANANTICO CK RT 49",
    "latitude": 39.386361,
    "longitude": -74.989305,
    "observation_count": 2,
    "confidence_level": "Low",
    "mean_nitrate_mg_L": 2.725,
    "p90_nitrate_mg_L": 3.649,
    "max_nitrate_mg_L": 3.88,
    "is_hotspot": 1,
    "detail_json": "station_details/NJDEP_BFBM-AN0760.json"
  },
  {
    "station_id": "NJDEP_BFBM-FIBI277",
    "station_name": "Millstone River at Blossom Hill Drive",
    "latitude": 40.3158,
    "longitude": -74.60049,
    "observation_count": 1,
    "confidence_level": "Low",
    "mean_nitrate_mg_L": 3.64,
    "p90_nitrate_mg_L": 3.64,
    "max_nitrate_mg_L": 3.64,
    "is_hotspot": 1,
    "detail_json": "station_details/NJDEP_BFBM-FIBI277.json"
  },
  {
    "station_id": "NJDEP_BFBM-01400640",
    "station_name": "MILLSTONE RIVER NEAR GROVERS MILL",
    "latitude": 40.3137,
    "longitude": -74.5887,
    "observation_count": 3,
    "confidence_level": "Low",
    "mean_nitrate_mg_L": 2.4516666666666667,
    "p90_nitrate_mg_L": 3.64,
    "max_nitrate_mg_L": 3.78,
    "is_hotspot": 1,
    "detail_json": "station_details/NJDEP_BFBM-01400640.json"
  },
  {
    "station_id": "BTMUA-SHB-2",
    "station_name": "Sandy Hill Brook, Cascade Road",
    "latitude": 40.1282,
    "longitude": -74.1519,
    "observation_count": 28,
    "confidence_level": "Low",
    "mean_nitrate_mg_L": 2.696213394333025,
    "p90_nitrate_mg_L": 3.6196549147,
    "max_nitrate_mg_L": 4.15678453445435,
    "is_hotspot": 1,
    "detail_json": "station_details/BTMUA-SHB-2.json"
  },
  {
    "station_id": "NJDEP_BFBM-AN0397B",
    "station_name": "Millstone River at Georgetown Franklin Turnpike",
    "latitude": 40.399541,
    "longitude": -74.629062,
    "observation_count": 1,
    "confidence_level": "Low",
    "mean_nitrate_mg_L": 3.58,
    "p90_nitrate_mg_L": 3.58,
    "max_nitrate_mg_L": 3.58,
    "is_hotspot": 1,
    "detail_json": "station_details/NJDEP_BFBM-AN0397B.json"
  },
  {
    "station_id": "NJDEP_BFBM-NJW04459-229-3",
    "station_name": "Memorial Lake-17-3",
    "latitude": 39.644825,
    "longitude": -75.323235,
    "observation_count": 3,
    "confidence_level": "Low",
    "mean_nitrate_mg_L": 2.69,
    "p90_nitrate_mg_L": 3.5660000000000003,
    "max_nitrate_mg_L": 3.85,
    "is_hotspot": 1,
    "detail_json": "station_details/NJDEP_BFBM-NJW04459-229-3.json"
  },
  {
    "station_id": "NARS_WQX-NRS_NJ-10076",
    "station_name": "Pohatcong Creek",
    "latitude": 40.655945,
    "longitude": -75.1245358,
    "observation_count": 1,
    "confidence_level": "Low",
    "mean_nitrate_mg_L": 3.5222,
    "p90_nitrate_mg_L": 3.5222,
    "max_nitrate_mg_L": 3.5222,
    "is_hotspot": 1,
    "detail_json": "station_details/NARS_WQX-NRS_NJ-10076.json"
  },
  {
    "station_id": "NJDEP_BFBM-AN0428",
    "station_name": "RARITAN RIVER BAKELITE PARK FIELDVILLE DAMN",
    "latitude": 40.540888,
    "longitude": -74.512611,
    "observation_count": 3,
    "confidence_level": "Low",
    "mean_nitrate_mg_L": 2.75,
    "p90_nitrate_mg_L": 3.494,
    "max_nitrate_mg_L": 3.68,
    "is_hotspot": 1,
    "detail_json": "station_details/NJDEP_BFBM-AN0428.json"
  },
  {
    "station_id": "NJDEP_BFBM-BFBM000364",
    "station_name": "Millstone R off Southfield Rd",
    "latitude": 40.303876,
    "longitude": -74.575439,
    "observation_count": 7,
    "confidence_level": "Low",
    "mean_nitrate_mg_L": 2.51,
    "p90_nitrate_mg_L": 3.492,
    "max_nitrate_mg_L": 3.81,
    "is_hotspot": 1,
    "detail_json": "station_details/NJDEP_BFBM-BFBM000364.json"
  },
  {
    "station_id": "NJDEP_BFBM-NJW04459-229-2",
    "station_name": "Memorial Lake-17-2",
    "latitude": 39.645467,
    "longitude": -75.32574,
    "observation_count": 3,
    "confidence_level": "Low",
    "mean_nitrate_mg_L": 2.2373333333333334,
    "p90_nitrate_mg_L": 3.466,
    "max_nitrate_mg_L": 3.86,
    "is_hotspot": 1,
    "detail_json": "station_details/NJDEP_BFBM-NJW04459-229-2.json"
  },
  {
    "station_id": "NJDEP_BFBM-01396180",
    "station_name": "DRAKES BROOK ON BARTLEY LONG VALLEY ROAD",
    "latitude": 40.812098,
    "longitude": -74.729357,
    "observation_count": 9,
    "confidence_level": "Low",
    "mean_nitrate_mg_L": 1.967222222222222,
    "p90_nitrate_mg_L": 3.4640000000000004,
    "max_nitrate_mg_L": 4.76,
    "is_hotspot": 1,
    "detail_json": "station_details/NJDEP_BFBM-01396180.json"
  },
  {
    "station_id": "NJDEP_BFBM-AN0715A",
    "station_name": "Indian Fields Br at Rt 669",
    "latitude": 39.434474,
    "longitude": -75.218572,
    "observation_count": 2,
    "confidence_level": "Low",
    "mean_nitrate_mg_L": 3.43,
    "p90_nitrate_mg_L": 3.462,
    "max_nitrate_mg_L": 3.47,
    "is_hotspot": 1,
    "detail_json": "station_details/NJDEP_BFBM-AN0715A.json"
  },
  {
    "station_id": "NJDEP_BFBM-AN0742A",
    "station_name": "Muddy Run at Pinyard Rd",
    "latitude": 39.610065,
    "longitude": -75.168048,
    "observation_count": 2,
    "confidence_level": "Low",
    "mean_nitrate_mg_L": 2.405,
    "p90_nitrate_mg_L": 3.4090000000000003,
    "max_nitrate_mg_L": 3.66,
    "is_hotspot": 1,
    "detail_json": "station_details/NJDEP_BFBM-AN0742A.json"
  },
  {
    "station_id": "NJDEP_BFBM-01389500",
    "station_name": "PASSAIC RIVER AT LITTLE FALLS",
    "latitude": 40.88757,
    "longitude": -74.2233,
    "observation_count": 3,
    "confidence_level": "Low",
    "mean_nitrate_mg_L": 2.353333333333333,
    "p90_nitrate_mg_L": 3.396,
    "max_nitrate_mg_L": 3.73,
    "is_hotspot": 1,
    "detail_json": "station_details/NJDEP_BFBM-01389500.json"
  },
  {
    "station_id": "NJDEP_BFBM-BFBM000195",
    "station_name": "South Branch Raritan River",
    "latitude": 40.65662,
    "longitude": -74.907219,
    "observation_count": 8,
    "confidence_level": "Low",
    "mean_nitrate_mg_L": 2.15625,
    "p90_nitrate_mg_L": 3.379999999999999,
    "max_nitrate_mg_L": 6.81,
    "is_hotspot": 1,
    "detail_json": "station_details/NJDEP_BFBM-BFBM000195.json"
  },
  {
    "station_id": "NJDEP_BFBM-AN0064",
    "station_name": "MUSCONETCONG R OFF RT 604 DNSTR OF WILLS BK",
    "latitude": 40.921083,
    "longitude": -74.731666,
    "observation_count": 2,
    "confidence_level": "Low",
    "mean_nitrate_mg_L": 1.9215,
    "p90_nitrate_mg_L": 3.3763000000000005,
    "max_nitrate_mg_L": 3.74,
    "is_hotspot": 1,
    "detail_json": "station_details/NJDEP_BFBM-AN0064.json"
  },
  {
    "station_id": "NJDEP_BFBM-AN0643",
    "station_name": "SOUTH RIVER ESTELLE AVE",
    "latitude": 39.471166,
    "longitude": -74.843138,
    "observation_count": 2,
    "confidence_level": "Low",
    "mean_nitrate_mg_L": 2.395,
    "p90_nitrate_mg_L": 3.367,
    "max_nitrate_mg_L": 3.61,
    "is_hotspot": 1,
    "detail_json": "station_details/NJDEP_BFBM-AN0643.json"
  },
  {
    "station_id": "NJHDG-1",
    "station_name": "Passaic River at Totowa Rd",
    "latitude": 40.90416,
    "longitude": -74.20066,
    "observation_count": 449,
    "confidence_level": "High",
    "mean_nitrate_mg_L": 1.9540389755011136,
    "p90_nitrate_mg_L": 3.35592,
    "max_nitrate_mg_L": 5.6675,
    "is_hotspot": 1,
    "detail_json": "station_details/NJHDG-1.json"
  },
  {
    "station_id": "NJDEP_BFBM-01396840",
    "station_name": "Sidney Brook tributary 2 at Main St at Jutland NJ",
    "latitude": 40.62296,
    "longitude": -74.96512,
    "observation_count": 1,
    "confidence_level": "Low",
    "mean_nitrate_mg_L": 3.35,
    "p90_nitrate_mg_L": 3.35,
    "max_nitrate_mg_L": 3.35,
    "is_hotspot": 1,
    "detail_json": "station_details/NJDEP_BFBM-01396840.json"
  },
  {
    "station_id": "NJDEP_BFBM-NJW04459-229-1",
    "station_name": "Memorial Lake-17-1",
    "latitude": 39.643901,
    "longitude": -75.328936,
    "observation_count": 3,
    "confidence_level": "Low",
    "mean_nitrate_mg_L": 1.8612333333333333,
    "p90_nitrate_mg_L": 3.3440000000000003,
    "max_nitrate_mg_L": 3.74,
    "is_hotspot": 1,
    "detail_json": "station_details/NJDEP_BFBM-NJW04459-229-1.json"
  },
  {
    "station_id": "NJDEP_BFBM-01403300",
    "station_name": "Raritan River On Queens Bridge, South Main St",
    "latitude": 40.559613,
    "longitude": -74.527811,
    "observation_count": 37,
    "confidence_level": "Medium",
    "mean_nitrate_mg_L": 2.0219297297297296,
    "p90_nitrate_mg_L": 3.34,
    "max_nitrate_mg_L": 5.33,
    "is_hotspot": 1,
    "detail_json": "station_details/NJDEP_BFBM-01403300.json"
  },
  {
    "station_id": "NJDEP_BFBM-01411675",
    "station_name": "Muddy Run near Olivet NJ",
    "latitude": 39.553889,
    "longitude": -75.164167,
    "observation_count": 20,
    "confidence_level": "Low",
    "mean_nitrate_mg_L": 2.555,
    "p90_nitrate_mg_L": 3.3340000000000005,
    "max_nitrate_mg_L": 3.61,
    "is_hotspot": 1,
    "detail_json": "station_details/NJDEP_BFBM-01411675.json"
  },
  {
    "station_id": "NJDEP_BFBM-BFBM000383",
    "station_name": "Macanippuck Run off dirt rd",
    "latitude": 39.435475,
    "longitude": -75.33328,
    "observation_count": 7,
    "confidence_level": "Low",
    "mean_nitrate_mg_L": 2.8428571428571425,
    "p90_nitrate_mg_L": 3.312,
    "max_nitrate_mg_L": 3.33,
    "is_hotspot": 1,
    "detail_json": "station_details/NJDEP_BFBM-BFBM000383.json"
  },
  {
    "station_id": "NJDEP_BFBM-AN0735",
    "station_name": "BURNT MILL BR RT 55",
    "latitude": 39.527805,
    "longitude": -75.066416,
    "observation_count": 2,
    "confidence_level": "Low",
    "mean_nitrate_mg_L": 2.89,
    "p90_nitrate_mg_L": 3.306,
    "max_nitrate_mg_L": 3.41,
    "is_hotspot": 1,
    "detail_json": "station_details/NJDEP_BFBM-AN0735.json"
  },
  {
    "station_id": "NJDEP_BFBM-AN0231A",
    "station_name": "PASSAIC RIVER AT PASSAIC AVENUE",
    "latitude": 40.755787,
    "longitude": -74.361335,
    "observation_count": 2,
    "confidence_level": "Low",
    "mean_nitrate_mg_L": 2.68,
    "p90_nitrate_mg_L": 3.304,
    "max_nitrate_mg_L": 3.46,
    "is_hotspot": 1,
    "detail_json": "station_details/NJDEP_BFBM-AN0231A.json"
  },
  {
    "station_id": "NJDEP_BFBM-01455295",
    "station_name": "Pohatcong Creek near Hughesville NJ",
    "latitude": 40.631643,
    "longitude": -75.172707,
    "observation_count": 1,
    "confidence_level": "Low",
    "mean_nitrate_mg_L": 3.25,
    "p90_nitrate_mg_L": 3.25,
    "max_nitrate_mg_L": 3.25,
    "is_hotspot": 1,
    "detail_json": "station_details/NJDEP_BFBM-01455295.json"
  },
  {
    "station_id": "RCE WRP-S2",
    "station_name": "Salem River below Daretoen Lake",
    "latitude": 39.61274931,
    "longitude": -75.26017583,
    "observation_count": 37,
    "confidence_level": "Medium",
    "mean_nitrate_mg_L": 1.803918918918919,
    "p90_nitrate_mg_L": 3.25,
    "max_nitrate_mg_L": 3.74,
    "is_hotspot": 1,
    "detail_json": "station_details/RCE_WRP-S2.json"
  },
  {
    "station_id": "NJDEP_BFBM-NJW04459-120-3",
    "station_name": "Sunset Lake - 3",
    "latitude": 39.446966,
    "longitude": -75.24056,
    "observation_count": 7,
    "confidence_level": "Low",
    "mean_nitrate_mg_L": 2.507142857142857,
    "p90_nitrate_mg_L": 3.218,
    "max_nitrate_mg_L": 3.26,
    "is_hotspot": 1,
    "detail_json": "station_details/NJDEP_BFBM-NJW04459-120-3.json"
  },
  {
    "station_id": "NJDEP_BFBM-AN0278",
    "station_name": "DIAMOND BK HEMLOCK AVE BEHIND SHOPPING CENTER",
    "latitude": 40.947805,
    "longitude": -74.141972,
    "observation_count": 2,
    "confidence_level": "Low",
    "mean_nitrate_mg_L": 3.01,
    "p90_nitrate_mg_L": 3.1940000000000004,
    "max_nitrate_mg_L": 3.24,
    "is_hotspot": 1,
    "detail_json": "station_details/NJDEP_BFBM-AN0278.json"
  },
  {
    "station_id": "NJ_MSU-04-030-1-A-M",
    "station_name": "Shurts Road tributary",
    "latitude": 40.70439,
    "longitude": -74.98818,
    "observation_count": 2,
    "confidence_level": "Low",
    "mean_nitrate_mg_L": 3.13,
    "p90_nitrate_mg_L": 3.194,
    "max_nitrate_mg_L": 3.21,
    "is_hotspot": 1,
    "detail_json": "station_details/NJ_MSU-04-030-1-A-M.json"
  },
  {
    "station_id": "NJDEP_BFBM-NJW04459-196-1",
    "station_name": "Harrisonville Lake - 1",
    "latitude": 39.681717,
    "longitude": -75.261598,
    "observation_count": 5,
    "confidence_level": "Low",
    "mean_nitrate_mg_L": 2.666,
    "p90_nitrate_mg_L": 3.186,
    "max_nitrate_mg_L": 3.27,
    "is_hotspot": 1,
    "detail_json": "station_details/NJDEP_BFBM-NJW04459-196-1.json"
  },
  {
    "station_id": "NJDEP_BFBM-01455700",
    "station_name": "MUSCONETCONG RIVER NEAR STANHOPE",
    "latitude": 40.92,
    "longitude": -74.731111,
    "observation_count": 10,
    "confidence_level": "Low",
    "mean_nitrate_mg_L": 1.8164,
    "p90_nitrate_mg_L": 3.151,
    "max_nitrate_mg_L": 3.25,
    "is_hotspot": 1,
    "detail_json": "station_details/NJDEP_BFBM-01455700.json"
  },
  {
    "station_id": "NJDEP_BFBM-01467082",
    "station_name": "PENNSAUKEN CK (NORTH BRANCH)",
    "latitude": 39.985405,
    "longitude": -75.015008,
    "observation_count": 8,
    "confidence_level": "Low",
    "mean_nitrate_mg_L": 2.0151250000000003,
    "p90_nitrate_mg_L": 3.133,
    "max_nitrate_mg_L": 3.35,
    "is_hotspot": 1,
    "detail_json": "station_details/NJDEP_BFBM-01467082.json"
  },
  {
    "station_id": "NJDEP_BFBM-AN0708A",
    "station_name": "Macanippuck Run at Macanippuck Rd",
    "latitude": 39.43280805,
    "longitude": -75.33573796,
    "observation_count": 1,
    "confidence_level": "Low",
    "mean_nitrate_mg_L": 3.13,
    "p90_nitrate_mg_L": 3.13,
    "max_nitrate_mg_L": 3.13,
    "is_hotspot": 1,
    "detail_json": "station_details/NJDEP_BFBM-AN0708A.json"
  },
  {
    "station_id": "NJDEP_BFBM-AN0752",
    "station_name": "LEBANON BR (MILL CK) SHERMAN RD",
    "latitude": 39.438083,
    "longitude": -75.107527,
    "observation_count": 2,
    "confidence_level": "Low",
    "mean_nitrate_mg_L": 3.095,
    "p90_nitrate_mg_L": 3.123,
    "max_nitrate_mg_L": 3.13,
    "is_hotspot": 1,
    "detail_json": "station_details/NJDEP_BFBM-AN0752.json"
  },
  {
    "station_id": "BTMUA-NF14",
    "station_name": "Storm Outfall (CHEMED)",
    "latitude": 40.0825,
    "longitude": -74.2169,
    "observation_count": 29,
    "confidence_level": "Low",
    "mean_nitrate_mg_L": 2.210375896086095,
    "p90_nitrate_mg_L": 3.1195763614,
    "max_nitrate_mg_L": 3.38,
    "is_hotspot": 1,
    "detail_json": "station_details/BTMUA-NF14.json"
  },
  {
    "station_id": "BTMUA-GR-4",
    "station_name": "Gravelly Run, Moses Milch Drive Basin",
    "latitude": 40.1046,
    "longitude": -74.1554,
    "observation_count": 43,
    "confidence_level": "Medium",
    "mean_nitrate_mg_L": 2.4972274441327893,
    "p90_nitrate_mg_L": 3.1014742701721203,
    "max_nitrate_mg_L": 3.38226222991943,
    "is_hotspot": 1,
    "detail_json": "station_details/BTMUA-GR-4.json"
  },
  {
    "station_id": "NJDEP_BFBM-AN0705",
    "station_name": "SARAH RUN TELEGRAPH RD (RT 647)",
    "latitude": 39.488472,
    "longitude": -75.326833,
    "observation_count": 9,
    "confidence_level": "Low",
    "mean_nitrate_mg_L": 2.5144444444444445,
    "p90_nitrate_mg_L": 3.096,
    "max_nitrate_mg_L": 3.16,
    "is_hotspot": 1,
    "detail_json": "station_details/NJDEP_BFBM-AN0705.json"
  },
  {
    "station_id": "NJDEP_BFBM-01379550",
    "station_name": "Passaic R at Lower Chatham Bridge nr Chatham NJ",
    "latitude": 40.755782,
    "longitude": -74.361478,
    "observation_count": 10,
    "confidence_level": "Low",
    "mean_nitrate_mg_L": 1.9256,
    "p90_nitrate_mg_L": 3.080999999999999,
    "max_nitrate_mg_L": 6.15,
    "is_hotspot": 1,
    "detail_json": "station_details/NJDEP_BFBM-01379550.json"
  },
  {
    "station_id": "NJDEP_BFBM-NJW04459-005-3",
    "station_name": "Gilman Lake-18-3",
    "latitude": 39.68534,
    "longitude": -75.183931,
    "observation_count": 3,
    "confidence_level": "Low",
    "mean_nitrate_mg_L": 2.603333333333333,
    "p90_nitrate_mg_L": 3.076,
    "max_nitrate_mg_L": 3.2,
    "is_hotspot": 1,
    "detail_json": "station_details/NJDEP_BFBM-NJW04459-005-3.json"
  },
  {
    "station_id": "NJDEP_BFBM-01404170",
    "station_name": "RARITAN R AT LANDING LANE AT NEW BRUNSWICK NJ",
    "latitude": 40.508611,
    "longitude": -74.464166,
    "observation_count": 12,
    "confidence_level": "Low",
    "mean_nitrate_mg_L": 2.103166666666666,
    "p90_nitrate_mg_L": 3.065,
    "max_nitrate_mg_L": 3.63,
    "is_hotspot": 1,
    "detail_json": "station_details/NJDEP_BFBM-01404170.json"
  },
  {
    "station_id": "MRRI-NJSEA-Meadowlands(14)",
    "station_name": "1A Landfill Site",
    "latitude": 40.76717,
    "longitude": -74.12287,
    "observation_count": 11,
    "confidence_level": "Low",
    "mean_nitrate_mg_L": 2.814090909090909,
    "p90_nitrate_mg_L": 3.055,
    "max_nitrate_mg_L": 18.0,
    "is_hotspot": 1,
    "detail_json": "station_details/MRRI-NJSEA-Meadowlands_14.json"
  },
  {
    "station_id": "BTMUA-TM-1",
    "station_name": "Friendship Road in Howell and is on Titmouse Brook",
    "latitude": 40.1312,
    "longitude": -74.2406,
    "observation_count": 14,
    "confidence_level": "Low",
    "mean_nitrate_mg_L": 2.2433443963527675,
    "p90_nitrate_mg_L": 3.053970789909364,
    "max_nitrate_mg_L": 3.32661390304565,
    "is_hotspot": 1,
    "detail_json": "station_details/BTMUA-TM-1.json"
  },
  {
    "station_id": "NJDEP_BFBM-01408127",
    "station_name": "South Branch Metedeconk River UNT at Jackson NJ",
    "latitude": 40.136777,
    "longitude": -74.328498,
    "observation_count": 17,
    "confidence_level": "Low",
    "mean_nitrate_mg_L": 2.439117647058824,
    "p90_nitrate_mg_L": 3.044,
    "max_nitrate_mg_L": 3.6,
    "is_hotspot": 1,
    "detail_json": "station_details/NJDEP_BFBM-01408127.json"
  },
  {
    "station_id": "NJDEP_BFBM-AN0069",
    "station_name": "MUSCONETCONG R KINGS HIGHWAY",
    "latitude": 40.813,
    "longitude": -74.841666,
    "observation_count": 2,
    "confidence_level": "Low",
    "mean_nitrate_mg_L": 2.14,
    "p90_nitrate_mg_L": 3.044,
    "max_nitrate_mg_L": 3.27,
    "is_hotspot": 1,
    "detail_json": "station_details/NJDEP_BFBM-AN0069.json"
  },
  {
    "station_id": "NJDEP_BFBM-FIBI503",
    "station_name": "Diamond Brook at Harristown Rd",
    "latitude": 40.947933,
    "longitude": -74.141889,
    "observation_count": 1,
    "confidence_level": "Low",
    "mean_nitrate_mg_L": 3.04,
    "p90_nitrate_mg_L": 3.04,
    "max_nitrate_mg_L": 3.04,
    "is_hotspot": 1,
    "detail_json": "station_details/NJDEP_BFBM-FIBI503.json"
  },
  {
    "station_id": "NJDEP_BFBM-FIBI016",
    "station_name": "Pike Run",
    "latitude": 40.444698,
    "longitude": -74.645834,
    "observation_count": 22,
    "confidence_level": "Low",
    "mean_nitrate_mg_L": 2.4622727272727274,
    "p90_nitrate_mg_L": 3.0330000000000004,
    "max_nitrate_mg_L": 5.3,
    "is_hotspot": 1,
    "detail_json": "station_details/NJDEP_BFBM-FIBI016.json"
  },
  {
    "station_id": "EMAP_CS_WQX-NJ03-0210-A",
    "station_name": "Hackensack River",
    "latitude": 40.8356,
    "longitude": -74.0288,
    "observation_count": 2,
    "confidence_level": "Low",
    "mean_nitrate_mg_L": 2.75,
    "p90_nitrate_mg_L": 3.022,
    "max_nitrate_mg_L": 3.09,
    "is_hotspot": 1,
    "detail_json": "station_details/EMAP_CS_WQX-NJ03-0210-A.json"
  },
  {
    "station_id": "NJDEP_BFBM-NJW04459-276-2",
    "station_name": "Silver Lake - 2",
    "latitude": 39.474025,
    "longitude": -75.244656,
    "observation_count": 5,
    "confidence_level": "Low",
    "mean_nitrate_mg_L": 1.9816000000000005,
    "p90_nitrate_mg_L": 3.02,
    "max_nitrate_mg_L": 3.08,
    "is_hotspot": 1,
    "detail_json": "station_details/NJDEP_BFBM-NJW04459-276-2.json"
  },
  {
    "station_id": "NJDEP_BFBM-AN0274A",
    "station_name": "PASSAIC RIVER AT WILLARD STREET",
    "latitude": 40.900932,
    "longitude": -74.336539,
    "observation_count": 2,
    "confidence_level": "Low",
    "mean_nitrate_mg_L": 2.041,
    "p90_nitrate_mg_L": 2.9922,
    "max_nitrate_mg_L": 3.23,
    "is_hotspot": 1,
    "detail_json": "station_details/NJDEP_BFBM-AN0274A.json"
  },
  {
    "station_id": "NJDEP_BFBM-FIBI590",
    "station_name": "Cramers Creek at Rt. 31",
    "latitude": 40.620909,
    "longitude": -74.883642,
    "observation_count": 1,
    "confidence_level": "Low",
    "mean_nitrate_mg_L": 2.99,
    "p90_nitrate_mg_L": 2.99,
    "max_nitrate_mg_L": 2.99,
    "is_hotspot": 1,
    "detail_json": "station_details/NJDEP_BFBM-FIBI590.json"
  },
  {
    "station_id": "NJDEP_BFBM-01411560",
    "station_name": "Little Robin Branch at SR 55 near Vineland NJ",
    "latitude": 39.481996,
    "longitude": -75.072861,
    "observation_count": 2,
    "confidence_level": "Low",
    "mean_nitrate_mg_L": 2.825,
    "p90_nitrate_mg_L": 2.989,
    "max_nitrate_mg_L": 3.03,
    "is_hotspot": 1,
    "detail_json": "station_details/NJDEP_BFBM-01411560.json"
  },
  {
    "station_id": "NJDEP_BFBM-NJLM-0092-1",
    "station_name": "Meadow Lakes-1",
    "latitude": 40.257725,
    "longitude": -74.519951,
    "observation_count": 4,
    "confidence_level": "Low",
    "mean_nitrate_mg_L": 2.5775,
    "p90_nitrate_mg_L": 2.985,
    "max_nitrate_mg_L": 3.03,
    "is_hotspot": 1,
    "detail_json": "station_details/NJDEP_BFBM-NJLM-0092-1.json"
  },
  {
    "station_id": "NJDEP_BFBM-01456074",
    "station_name": "MINE BROOK ON STEPHENS PARK RD, NEAR HACKETTSTOWN",
    "latitude": 40.84156,
    "longitude": -74.801603,
    "observation_count": 20,
    "confidence_level": "Low",
    "mean_nitrate_mg_L": 2.49325,
    "p90_nitrate_mg_L": 2.9780000000000006,
    "max_nitrate_mg_L": 3.47,
    "is_hotspot": 1,
    "detail_json": "station_details/NJDEP_BFBM-01456074.json"
  },
  {
    "station_id": "NJHDG-2",
    "station_name": "Passaic River at Northwest St",
    "latitude": 40.9212,
    "longitude": -74.1755,
    "observation_count": 337,
    "confidence_level": "High",
    "mean_nitrate_mg_L": 1.9088637982195849,
    "p90_nitrate_mg_L": 2.958000000000001,
    "max_nitrate_mg_L": 5.83,
    "is_hotspot": 1,
    "detail_json": "station_details/NJHDG-2.json"
  },
  {
    "station_id": "NARS_WQX-NRS_NJ-10077",
    "station_name": "Passaic River",
    "latitude": 40.85890253,
    "longitude": -74.11904238,
    "observation_count": 2,
    "confidence_level": "Low",
    "mean_nitrate_mg_L": 2.50665,
    "p90_nitrate_mg_L": 2.94133,
    "max_nitrate_mg_L": 3.05,
    "is_hotspot": 1,
    "detail_json": "station_details/NARS_WQX-NRS_NJ-10077.json"
  },
  {
    "station_id": "NJHDG-7",
    "station_name": "Passaic River at Union Ave",
    "latitude": 40.83983,
    "longitude": -74.12433,
    "observation_count": 435,
    "confidence_level": "High",
    "mean_nitrate_mg_L": 1.9953429885057472,
    "p90_nitrate_mg_L": 2.9377000000000004,
    "max_nitrate_mg_L": 5.5816,
    "is_hotspot": 1,
    "detail_json": "station_details/NJHDG-7.json"
  },
  {
    "station_id": "NJHDG-3",
    "station_name": "Passaic River at Lincoln Ave",
    "latitude": 40.9413,
    "longitude": -74.1482,
    "observation_count": 309,
    "confidence_level": "High",
    "mean_nitrate_mg_L": 1.8415423948220064,
    "p90_nitrate_mg_L": 2.932,
    "max_nitrate_mg_L": 5.69,
    "is_hotspot": 1,
    "detail_json": "station_details/NJHDG-3.json"
  },
  {
    "station_id": "NJDEP_BFBM-FIBI114",
    "station_name": "Pohatcong Creek at Creek Road",
    "latitude": 40.631724,
    "longitude": -75.172622,
    "observation_count": 1,
    "confidence_level": "Low",
    "mean_nitrate_mg_L": 2.93,
    "p90_nitrate_mg_L": 2.93,
    "max_nitrate_mg_L": 2.93,
    "is_hotspot": 1,
    "detail_json": "station_details/NJDEP_BFBM-FIBI114.json"
  },
  {
    "station_id": "NJDEP_BFBM-01398260",
    "station_name": "N BR RARITAN RIVER ON ROUTE 24 NEAR CHESTER",
    "latitude": 40.77104,
    "longitude": -74.6261,
    "observation_count": 13,
    "confidence_level": "Low",
    "mean_nitrate_mg_L": 2.166923076923077,
    "p90_nitrate_mg_L": 2.93,
    "max_nitrate_mg_L": 3.29,
    "is_hotspot": 1,
    "detail_json": "station_details/NJDEP_BFBM-01398260.json"
  },
  {
    "station_id": "NJDEP_BFBM-FIBI060",
    "station_name": "Musquapsink Creek,Harrington Ave",
    "latitude": 40.992314,
    "longitude": -74.02324,
    "observation_count": 1,
    "confidence_level": "Low",
    "mean_nitrate_mg_L": 2.92,
    "p90_nitrate_mg_L": 2.92,
    "max_nitrate_mg_L": 2.92,
    "is_hotspot": 1,
    "detail_json": "station_details/NJDEP_BFBM-FIBI060.json"
  },
  {
    "station_id": "NJDEP_BFBM-FIBI256",
    "station_name": "Parvin Br at State Route 55",
    "latitude": 39.455191,
    "longitude": -75.068266,
    "observation_count": 12,
    "confidence_level": "Low",
    "mean_nitrate_mg_L": 2.283333333333333,
    "p90_nitrate_mg_L": 2.918,
    "max_nitrate_mg_L": 3.34,
    "is_hotspot": 1,
    "detail_json": "station_details/NJDEP_BFBM-FIBI256.json"
  },
  {
    "station_id": "NJDEP_BFBM-AN0700",
    "station_name": "COOL RUN STOCKINGTON-PLEASANT HILL RD",
    "latitude": 39.57875,
    "longitude": -75.309444,
    "observation_count": 2,
    "confidence_level": "Low",
    "mean_nitrate_mg_L": 2.68,
    "p90_nitrate_mg_L": 2.9120000000000004,
    "max_nitrate_mg_L": 2.97,
    "is_hotspot": 1,
    "detail_json": "station_details/NJDEP_BFBM-AN0700.json"
  },
  {
    "station_id": "NJDEP_BFBM-AN0574",
    "station_name": "GREAT SWAMP BR RT 206",
    "latitude": 39.684277,
    "longitude": -74.763305,
    "observation_count": 2,
    "confidence_level": "Low",
    "mean_nitrate_mg_L": 2.27,
    "p90_nitrate_mg_L": 2.91,
    "max_nitrate_mg_L": 3.07,
    "is_hotspot": 1,
    "detail_json": "station_details/NJDEP_BFBM-AN0574.json"
  },
  {
    "station_id": "NJDEP_BFBM-AN0325",
    "station_name": "CAKEPOULIN CK LOWER LANSDOWN RD",
    "latitude": 40.607805,
    "longitude": -74.915777,
    "observation_count": 2,
    "confidence_level": "Low",
    "mean_nitrate_mg_L": 2.7,
    "p90_nitrate_mg_L": 2.908,
    "max_nitrate_mg_L": 2.96,
    "is_hotspot": 1,
    "detail_json": "station_details/NJDEP_BFBM-AN0325.json"
  },
  {
    "station_id": "NJDEP_BFBM-AN0729",
    "station_name": "STILL RUN AURA RD",
    "latitude": 39.673055,
    "longitude": -75.129972,
    "observation_count": 12,
    "confidence_level": "Low",
    "mean_nitrate_mg_L": 1.9535833333333332,
    "p90_nitrate_mg_L": 2.892,
    "max_nitrate_mg_L": 3.28,
    "is_hotspot": 1,
    "detail_json": "station_details/NJDEP_BFBM-AN0729.json"
  },
  {
    "station_id": "NJDEP_BFBM-0146453250",
    "station_name": "Crystal Creek near Mansfield Square NJ",
    "latitude": 40.113119,
    "longitude": -74.722864,
    "observation_count": 14,
    "confidence_level": "Low",
    "mean_nitrate_mg_L": 2.2392857142857143,
    "p90_nitrate_mg_L": 2.889,
    "max_nitrate_mg_L": 3.37,
    "is_hotspot": 1,
    "detail_json": "station_details/NJDEP_BFBM-0146453250.json"
  },
  {
    "station_id": "NJDEP_BFBM-AN0115",
    "station_name": "MIRY RUN RT 533",
    "latitude": 40.246841,
    "longitude": -74.686411,
    "observation_count": 2,
    "confidence_level": "Low",
    "mean_nitrate_mg_L": 2.0700000000000003,
    "p90_nitrate_mg_L": 2.862,
    "max_nitrate_mg_L": 3.06,
    "is_hotspot": 1,
    "detail_json": "station_details/NJDEP_BFBM-AN0115.json"
  },
  {
    "station_id": "NJDEP_BFBM-AN0038",
    "station_name": "TROUT BROOK RT 612 ALLAMUCHY RD/JOHNSONBURG RD",
    "latitude": 40.930027,
    "longitude": -74.818944,
    "observation_count": 2,
    "confidence_level": "Low",
    "mean_nitrate_mg_L": 2.825,
    "p90_nitrate_mg_L": 2.861,
    "max_nitrate_mg_L": 2.87,
    "is_hotspot": 1,
    "detail_json": "station_details/NJDEP_BFBM-AN0038.json"
  },
  {
    "station_id": "NJDEP_BFBM-BFBM000368",
    "station_name": "Peapack Bk trib off Fox Chase Rd",
    "latitude": 40.764137,
    "longitude": -74.67169,
    "observation_count": 7,
    "confidence_level": "Low",
    "mean_nitrate_mg_L": 2.455714285714286,
    "p90_nitrate_mg_L": 2.856,
    "max_nitrate_mg_L": 2.88,
    "is_hotspot": 1,
    "detail_json": "station_details/NJDEP_BFBM-BFBM000368.json"
  },
  {
    "station_id": "NJDEP_BFBM-AN0183",
    "station_name": "SOUTH BR PENNSAUKEN CK RT 41",
    "latitude": 39.940277,
    "longitude": -74.982777,
    "observation_count": 2,
    "confidence_level": "Low",
    "mean_nitrate_mg_L": 2.6950000000000003,
    "p90_nitrate_mg_L": 2.851,
    "max_nitrate_mg_L": 2.89,
    "is_hotspot": 1,
    "detail_json": "station_details/NJDEP_BFBM-AN0183.json"
  },
  {
    "station_id": "NJDEP_BFBM-AN0059",
    "station_name": "MERRILL CK RICHLINE RD UPSTR OF RESERVOIR",
    "latitude": 40.750027,
    "longitude": -75.08525,
    "observation_count": 1,
    "confidence_level": "Low",
    "mean_nitrate_mg_L": 2.85,
    "p90_nitrate_mg_L": 2.85,
    "max_nitrate_mg_L": 2.85,
    "is_hotspot": 1,
    "detail_json": "station_details/NJDEP_BFBM-AN0059.json"
  },
  {
    "station_id": "NJDEP_BFBM-01477100",
    "station_name": "Raccoon Ck at Fisslerville Rd",
    "latitude": 39.708611,
    "longitude": -75.201111,
    "observation_count": 21,
    "confidence_level": "Low",
    "mean_nitrate_mg_L": 2.212452380952381,
    "p90_nitrate_mg_L": 2.85,
    "max_nitrate_mg_L": 3.36,
    "is_hotspot": 1,
    "detail_json": "station_details/NJDEP_BFBM-01477100.json"
  },
  {
    "station_id": "NJDEP_BFBM-AN0712A",
    "station_name": "Shaw Br at Beebe Run Rd",
    "latitude": 39.458379,
    "longitude": -75.252382,
    "observation_count": 2,
    "confidence_level": "Low",
    "mean_nitrate_mg_L": 1.9995,
    "p90_nitrate_mg_L": 2.8479,
    "max_nitrate_mg_L": 3.06,
    "is_hotspot": 1,
    "detail_json": "station_details/NJDEP_BFBM-AN0712A.json"
  },
  {
    "station_id": "NJDEP_BFBM-NJLM-0285-2",
    "station_name": "Elmer Lake - 2",
    "latitude": 39.59289,
    "longitude": -75.165,
    "observation_count": 4,
    "confidence_level": "Low",
    "mean_nitrate_mg_L": 1.935,
    "p90_nitrate_mg_L": 2.847,
    "max_nitrate_mg_L": 3.03,
    "is_hotspot": 1,
    "detail_json": "station_details/NJDEP_BFBM-NJLM-0285-2.json"
  },
  {
    "station_id": "NJHDG-4",
    "station_name": "Passaic River at Market St",
    "latitude": 40.90266,
    "longitude": -74.133,
    "observation_count": 441,
    "confidence_level": "High",
    "mean_nitrate_mg_L": 1.820455555555556,
    "p90_nitrate_mg_L": 2.8436,
    "max_nitrate_mg_L": 5.8325,
    "is_hotspot": 1,
    "detail_json": "station_details/NJHDG-4.json"
  },
  {
    "station_id": "NJDEP_BFBM-AN0696A",
    "station_name": "Game Ck at W Quillytown Rd",
    "latitude": 39.699618,
    "longitude": -75.421492,
    "observation_count": 12,
    "confidence_level": "Low",
    "mean_nitrate_mg_L": 2.0224166666666665,
    "p90_nitrate_mg_L": 2.839,
    "max_nitrate_mg_L": 3.42,
    "is_hotspot": 1,
    "detail_json": "station_details/NJDEP_BFBM-AN0696A.json"
  },
  {
    "station_id": "MRRI-NJSEA-Kearny Marsh",
    "station_name": "Kearny Marsh",
    "latitude": 40.75999,
    "longitude": -74.11745,
    "observation_count": 69,
    "confidence_level": "Medium",
    "mean_nitrate_mg_L": 1.7293521739130435,
    "p90_nitrate_mg_L": 2.830000000000002,
    "max_nitrate_mg_L": 20.462,
    "is_hotspot": 1,
    "detail_json": "station_details/MRRI-NJSEA-Kearny_Marsh.json"
  },
  {
    "station_id": "NJDEP_BFBM-BFBM000064",
    "station_name": "Salem Canal on US Hwy 130",
    "latitude": 39.681969,
    "longitude": -75.491623,
    "observation_count": 8,
    "confidence_level": "Low",
    "mean_nitrate_mg_L": 1.3487375,
    "p90_nitrate_mg_L": 2.83,
    "max_nitrate_mg_L": 3.11,
    "is_hotspot": 1,
    "detail_json": "station_details/NJDEP_BFBM-BFBM000064.json"
  },
  {
    "station_id": "DRBC-1746 BCP",
    "station_name": "Musconetcong River at Rt 627",
    "latitude": 40.5925,
    "longitude": -75.18667,
    "observation_count": 113,
    "confidence_level": "High",
    "mean_nitrate_mg_L": 2.168323008849557,
    "p90_nitrate_mg_L": 2.82,
    "max_nitrate_mg_L": 3.9,
    "is_hotspot": 1,
    "detail_json": "station_details/DRBC-1746_BCP.json"
  },
  {
    "station_id": "NJDEP_BFBM-AN0710",
    "station_name": "COHANSEY RIVER RT 540",
    "latitude": 39.51675,
    "longitude": -75.266833,
    "observation_count": 2,
    "confidence_level": "Low",
    "mean_nitrate_mg_L": 2.41,
    "p90_nitrate_mg_L": 2.818,
    "max_nitrate_mg_L": 2.92,
    "is_hotspot": 1,
    "detail_json": "station_details/NJDEP_BFBM-AN0710.json"
  },
  {
    "station_id": "NJDEP_BFBM-NJLM-0092-2",
    "station_name": "Meadow Lakes-2",
    "latitude": 40.259329,
    "longitude": -74.519119,
    "observation_count": 4,
    "confidence_level": "Low",
    "mean_nitrate_mg_L": 2.3025,
    "p90_nitrate_mg_L": 2.816,
    "max_nitrate_mg_L": 2.84,
    "is_hotspot": 1,
    "detail_json": "station_details/NJDEP_BFBM-NJLM-0092-2.json"
  },
  {
    "station_id": "GSWA-LB4S",
    "station_name": "LB4S",
    "latitude": 40.778287,
    "longitude": -74.464763,
    "observation_count": 6,
    "confidence_level": "Low",
    "mean_nitrate_mg_L": 1.8965,
    "p90_nitrate_mg_L": 2.813,
    "max_nitrate_mg_L": 2.826,
    "is_hotspot": 1,
    "detail_json": "station_details/GSWA-LB4S.json"
  },
  {
    "station_id": "NJDEP_BFBM-BB-4",
    "station_name": "Beaver Brook at Allerton Rd, Clinton Twp NJ",
    "latitude": 40.637472,
    "longitude": -74.882638,
    "observation_count": 2,
    "confidence_level": "Low",
    "mean_nitrate_mg_L": 2.4850000000000003,
    "p90_nitrate_mg_L": 2.809,
    "max_nitrate_mg_L": 2.89,
    "is_hotspot": 1,
    "detail_json": "station_details/NJDEP_BFBM-BB-4.json"
  },
  {
    "station_id": "NJDEP_BFBM-NJW04459-196-2",
    "station_name": "Harrisonville Lake - 2",
    "latitude": 39.682056,
    "longitude": -75.265102,
    "observation_count": 5,
    "confidence_level": "Low",
    "mean_nitrate_mg_L": 2.192,
    "p90_nitrate_mg_L": 2.808,
    "max_nitrate_mg_L": 2.86,
    "is_hotspot": 1,
    "detail_json": "station_details/NJDEP_BFBM-NJW04459-196-2.json"
  },
  {
    "station_id": "NJDEP_BFBM-NJW04459-276-1",
    "station_name": "Silver Lake - 1",
    "latitude": 39.47284,
    "longitude": -75.247568,
    "observation_count": 5,
    "confidence_level": "Low",
    "mean_nitrate_mg_L": 1.9274,
    "p90_nitrate_mg_L": 2.806,
    "max_nitrate_mg_L": 2.89,
    "is_hotspot": 1,
    "detail_json": "station_details/NJDEP_BFBM-NJW04459-276-1.json"
  },
  {
    "station_id": "NJHDG-9",
    "station_name": "Second River",
    "latitude": 40.7835,
    "longitude": -74.1615,
    "observation_count": 399,
    "confidence_level": "High",
    "mean_nitrate_mg_L": 2.1868546365914785,
    "p90_nitrate_mg_L": 2.802,
    "max_nitrate_mg_L": 3.5532,
    "is_hotspot": 1,
    "detail_json": "station_details/NJHDG-9.json"
  },
  {
    "station_id": "NJDEP_BFBM-FIBI094A",
    "station_name": "Passaic River at Summit Ave",
    "latitude": 40.733871,
    "longitude": -74.375836,
    "observation_count": 1,
    "confidence_level": "Low",
    "mean_nitrate_mg_L": 2.8,
    "p90_nitrate_mg_L": 2.8,
    "max_nitrate_mg_L": 2.8,
    "is_hotspot": 1,
    "detail_json": "station_details/NJDEP_BFBM-FIBI094A.json"
  },
  {
    "station_id": "NJDEP_BFBM-AN0679",
    "station_name": "RACCOON CK ELLIS MILL RD BELOW GILMAN LAKE",
    "latitude": 39.685861,
    "longitude": -75.184638,
    "observation_count": 1,
    "confidence_level": "Low",
    "mean_nitrate_mg_L": 2.79,
    "p90_nitrate_mg_L": 2.79,
    "max_nitrate_mg_L": 2.79,
    "is_hotspot": 1,
    "detail_json": "station_details/NJDEP_BFBM-AN0679.json"
  },
  {
    "station_id": "NJDEP_BFBM-NJS2016-029",
    "station_name": "Lamington R tributary nr Tennis Rd",
    "latitude": 40.830977,
    "longitude": -74.632595,
    "observation_count": 1,
    "confidence_level": "Low",
    "mean_nitrate_mg_L": 2.79,
    "p90_nitrate_mg_L": 2.79,
    "max_nitrate_mg_L": 2.79,
    "is_hotspot": 1,
    "detail_json": "station_details/NJDEP_BFBM-NJS2016-029.json"
  },
  {
    "station_id": "NJDEP_BFBM-AN0410",
    "station_name": "MILLSTONE RIVER BLACKWELLS MILL RD",
    "latitude": 40.475138,
    "longitude": -74.576277,
    "observation_count": 3,
    "confidence_level": "Low",
    "mean_nitrate_mg_L": 2.526666666666667,
    "p90_nitrate_mg_L": 2.772,
    "max_nitrate_mg_L": 2.79,
    "is_hotspot": 1,
    "detail_json": "station_details/NJDEP_BFBM-AN0410.json"
  },
  {
    "station_id": "NJDEP_BFBM-01482530",
    "station_name": "MAJOR RUN AT SHARPTOWN",
    "latitude": 39.64868,
    "longitude": -75.3743,
    "observation_count": 3,
    "confidence_level": "Low",
    "mean_nitrate_mg_L": 1.6933333333333334,
    "p90_nitrate_mg_L": 2.764,
    "max_nitrate_mg_L": 3.07,
    "is_hotspot": 1,
    "detail_json": "station_details/NJDEP_BFBM-01482530.json"
  },
  {
    "station_id": "NJDEP_BFBM-AN0403",
    "station_name": "CRUSER BROOK RT 206",
    "latitude": 40.454416,
    "longitude": -74.660138,
    "observation_count": 3,
    "confidence_level": "Low",
    "mean_nitrate_mg_L": 1.9733333333333332,
    "p90_nitrate_mg_L": 2.76,
    "max_nitrate_mg_L": 3.02,
    "is_hotspot": 1,
    "detail_json": "station_details/NJDEP_BFBM-AN0403.json"
  },
  {
    "station_id": "NJDEP_BFBM-FIBI257",
    "station_name": "Muddy Run UNT at Almond Road",
    "latitude": 39.52396,
    "longitude": -75.15751,
    "observation_count": 3,
    "confidence_level": "Low",
    "mean_nitrate_mg_L": 2.4366666666666665,
    "p90_nitrate_mg_L": 2.756,
    "max_nitrate_mg_L": 2.86,
    "is_hotspot": 1,
    "detail_json": "station_details/NJDEP_BFBM-FIBI257.json"
  },
  {
    "station_id": "RCE WRP-TB4",
    "station_name": "Tenakill Brook at Tenafly Rd, Tenafly",
    "latitude": 40.93172,
    "longitude": -73.965797,
    "observation_count": 11,
    "confidence_level": "Low",
    "mean_nitrate_mg_L": 2.1163636363636367,
    "p90_nitrate_mg_L": 2.75,
    "max_nitrate_mg_L": 4.67,
    "is_hotspot": 1,
    "detail_json": "station_details/RCE_WRP-TB4.json"
  },
  {
    "station_id": "NJDEP_BFBM-01477470",
    "station_name": "Oldmans Ck at Rt 45",
    "latitude": 39.684726,
    "longitude": -75.293255,
    "observation_count": 20,
    "confidence_level": "Low",
    "mean_nitrate_mg_L": 1.7919,
    "p90_nitrate_mg_L": 2.738,
    "max_nitrate_mg_L": 3.21,
    "is_hotspot": 1,
    "detail_json": "station_details/NJDEP_BFBM-01477470.json"
  },
  {
    "station_id": "IEC-NYNJCT-IEC2",
    "station_name": "Second River at Bridge St./Mill St. New Brunswick, NJ",
    "latitude": 40.78292,
    "longitude": -74.15856,
    "observation_count": 32,
    "confidence_level": "Medium",
    "mean_nitrate_mg_L": 2.0391875,
    "p90_nitrate_mg_L": 2.7300000000000004,
    "max_nitrate_mg_L": 2.8,
    "is_hotspot": 1,
    "detail_json": "station_details/IEC-NYNJCT-IEC2.json"
  },
  {
    "station_id": "NJDEP_BFBM-AN0356",
    "station_name": "LAMINGTON R IRONIA RD",
    "latitude": 40.83525,
    "longitude": -74.644583,
    "observation_count": 3,
    "confidence_level": "Low",
    "mean_nitrate_mg_L": 1.866,
    "p90_nitrate_mg_L": 2.728,
    "max_nitrate_mg_L": 2.94,
    "is_hotspot": 1,
    "detail_json": "station_details/NJDEP_BFBM-AN0356.json"
  },
  {
    "station_id": "NJDEP_BFBM-NJW04459-088-O",
    "station_name": "Garrison Lake - OUTLET",
    "latitude": 39.628271,
    "longitude": -75.126682,
    "observation_count": 3,
    "confidence_level": "Low",
    "mean_nitrate_mg_L": 1.96,
    "p90_nitrate_mg_L": 2.718,
    "max_nitrate_mg_L": 2.93,
    "is_hotspot": 1,
    "detail_json": "station_details/NJDEP_BFBM-NJW04459-088-O.json"
  },
  {
    "station_id": "NJDEP_BFBM-FIBI008b",
    "station_name": "Cakepoulin Creek",
    "latitude": 40.607715,
    "longitude": -74.915831,
    "observation_count": 3,
    "confidence_level": "Low",
    "mean_nitrate_mg_L": 2.46,
    "p90_nitrate_mg_L": 2.708,
    "max_nitrate_mg_L": 2.73,
    "is_hotspot": 1,
    "detail_json": "station_details/NJDEP_BFBM-FIBI008b.json"
  },
  {
    "station_id": "NJDEP_BFBM-AN0405",
    "station_name": "PIKE RUN RT 533",
    "latitude": 40.420111,
    "longitude": -74.640472,
    "observation_count": 3,
    "confidence_level": "Low",
    "mean_nitrate_mg_L": 2.013333333333333,
    "p90_nitrate_mg_L": 2.706,
    "max_nitrate_mg_L": 2.91,
    "is_hotspot": 1,
    "detail_json": "station_details/NJDEP_BFBM-AN0405.json"
  },
  {
    "station_id": "NJDEP_BFBM-FIBI275",
    "station_name": "Still Run at Whig Lane Road",
    "latitude": 39.6716766,
    "longitude": -75.12914558,
    "observation_count": 2,
    "confidence_level": "Low",
    "mean_nitrate_mg_L": 1.9235,
    "p90_nitrate_mg_L": 2.7047,
    "max_nitrate_mg_L": 2.9,
    "is_hotspot": 1,
    "detail_json": "station_details/NJDEP_BFBM-FIBI275.json"
  },